$GPTXT,01,01,02,u-blox ag - www.u-blox.com*50

$GPTXT,01,01,02,HW  UBX-G70xx   00070000 FF7FFFFFo*69

$GPTXT,01,01,02,ROM CORE 1.00 (59842) Jun 27 2012 17:43:52*59

$GPTXT,01,01,02,PROTVER 14.00*1E

$GPTXT,01,01,02,ANTSUPERV=AC SD PDoS SR*20

$GPTXT,01,01,02,ANTSTATUS=OK*3B

$GPTXT,01,01,02,LLC FFFFFFFF-FFFFFFFF-FFFFFFFF-FFFFFFFF-FFFFFFFD*2C

$GPRMC,091947.00,A,5128.76976,N,00236.28765,W,0.324,,251124,,,A*6A

$GPVTG,,T,,M,0.324,N,0.600,K,A*20

$GPGGA,091947.00,5128.76976,N,00236.28765,W,1,08,1.16,78.2,M,48.6,M,,*7B

$GPGSA,A,3,30,20,05,13,07,14,11,15,,,,,1.84,1.16,1.43*0F

$GPGSV,3,1,12,05,64,285,33,07,42,059,28,09,08,089,20,11,18,209,42*71

$GPGSV,3,2,12,13,46,269,38,14,19,142,38,15,13,278,25,18,13,329,18*7A

$GPGSV,3,3,12,20,64,195,33,22,04,157,25,27,01,028,,30,72,106,40*7C

$GPGLL,5128.76976,N,00236.28765,W,091947.00,A,A*77

$GPRMC,091948.00,A,5128.76982,N,00236.28771,W,0.275,,251124,,,A*6E

$GPVTG,,T,,M,0.275,N,0.509,K,A*2F

$GPGGA,091948.00,5128.76982,N,00236.28771,W,1,08,1.16,78.2,M,48.6,M,,*7A

$GPGSA,A,3,30,20,05,13,07,14,11,15,,,,,1.84,1.16,1.43*0F

$GPGSV,3,1,12,05,64,285,33,07,42,059,28,09,08,089,20,11,18,209,42*71

$GPGSV,3,2,12,13,46,269,39,14,19,142,39,15,13,278,26,18,13,329,18*79

$GPGSV,3,3,12,20,64,195,34,22,04,157,25,27,01,028,,30,72,106,40*7B

$GPGLL,5128.76982,N,00236.28771,W,091948.00,A,A*76

$GPRMC,091949.00,A,5128.76983,N,00236.28779,W,0.079,,251124,,,A*68

$GPVTG,,T,,M,0.079,N,0.147,K,A*2F

$GPGGA,091949.00,5128.76983,N,00236.28779,W,1,08,1.16,78.3,M,48.6,M,,*73

$GPGSA,A,3,30,20,05,13,07,14,11,15,,,,,1.84,1.16,1.43*0F

$GPGSV,3,1,12,05,64,285,33,07,42,059,27,09,08,089,21,11,18,209,42*7F

$GPGSV,3,2,12,13,46,269,39,14,19,142,39,15,13,278,26,18,13,329,20*72

$GPGSV,3,3,12,20,64,195,34,22,04,157,26,27,01,028,,30,72,106,39*76

$GPGLL,5128.76983,N,00236.28779,W,091949.00,A,A*7E

$GPRMC,091950.00,A,5128.76981,N,00236.28788,W,0.091,,251124,,,A*6A

$GPVTG,,T,,M,0.091,N,0.169,K,A*25

$GPGGA,091950.00,5128.76981,N,00236.28788,W,1,08,1.16,78.5,M,48.6,M,,*71

$GPGSA,A,3,30,20,05,13,07,14,11,15,,,,,1.84,1.16,1.43*0F

$GPGSV,3,1,12,05,64,285,33,07,42,059,28,09,08,089,22,11,18,209,42*73

$GPGSV,3,2,12,13,46,269,39,14,19,142,39,15,13,278,25,18,13,329,20*71

$GPTXT,01,01,01,NMEA unknown msg*58

$GPGSV,3,3,12,20,64,195,34,22,04,157,25,27,01,028,,30,72,106,39*75

$GPGLL,5128.76981,N,00236.28788,W,091950.00,A,A*7A

$GPRMC,091951.00,A,5128.76985,N,00236.28792,W,0.125,,251124,,,A*6A

$GPVTG,,T,,M,0.125,N,0.232,K,A*26

$GPGGA,091951.00,5128.76985,N,00236.28792,W,1,08,1.16,78.5,M,48.6,M,,*7F

$GPGSA,A,3,30,20,05,13,07,14,11,15,,,,,1.84,1.16,1.43*0F

$GPGSV,3,1,12,05,64,285,33,07,42,059,28,09,08,089,22,11,18,209,42*73

$GPGSV,3,2,12,13,46,269,39,14,19,142,38,15,13,278,25,18,13,329,20*70

$GPGSV,3,3,12,20,64,195,34,22,04,157,25,27,01,028,,30,72,106,39*75

$GPGLL,5128.76985,N,00236.28792,W,091951.00,A,A*74

$GPRMC,091952.00,A,5128.76986,N,00236.28798,W,0.133,,251124,,,A*67

$GPVTG,,T,,M,0.133,N,0.246,K,A*22

$GPGGA,091952.00,5128.76986,N,00236.28798,W,1,08,1.16,78.5,M,48.6,M,,*75

$GPGSA,A,3,30,20,05,13,07,14,11,15,,,,,1.84,1.16,1.43*0F

$GPGSV,3,1,12,05,64,285,33,07,42,059,28,09,08,089,22,11,18,209,42*73

$GPGSV,3,2,12,13,46,269,39,14,19,142,38,15,13,278,24,18,13,329,20*71

$GPGSV,3,3,12,20,64,195,34,22,04,157,25,27,01,028,,30,72,106,39*75

$GPGLL,5128.76986,N,00236.28798,W,091952.00,A,A*7E

$GPRMC,091953.00,A,5128.76992,N,00236.28805,W,0.059,,251124,,,A*65

$GPVTG,,T,,M,0.059,N,0.110,K,A*2F

$GPGGA,091953.00,5128.76992,N,00236.28805,W,1,08,1.16,78.6,M,48.6,M,,*79

$GPGSA,A,3,30,20,05,13,07,14,11,15,,,,,1.84,1.16,1.43*0F

$GPGSV,3,1,12,05,64,285,33,07,42,059,28,09,08,089,22,11,18,209,41*70

$GPGSV,3,2,12,13,46,269,38,14,19,142,38,15,13,278,24,18,13,329,20*70

$GPGSV,3,3,12,20,64,195,34,22,04,157,25,27,01,028,,30,72,106,39*75

$GPGLL,5128.76992,N,00236.28805,W,091953.00,A,A*71

$GPTXT,01,01,01,NMEA unknown msg*58

$GPRMC,091954.00,A,5128.76994,N,00236.28808,W,0.112,,251124,,,A*67

$GPVTG,,T,,M,0.112,N,0.207,K,A*24

$GPGGA,091954.00,5128.76994,N,00236.28808,W,1,08,1.15,78.6,M,48.6,M,,*76

$GPGSA,A,3,30,20,05,13,07,14,11,15,,,,,1.84,1.15,1.43*0C

$GPGSV,3,1,12,05,64,285,33,07,42,059,28,09,08,089,22,11,18,209,40*71

$GPGSV,3,2,12,13,46,269,38,14,19,142,38,15,13,278,24,18,13,329,19*7A

$GPGSV,3,3,12,20,64,195,34,22,04,157,25,27,01,028,,30,72,106,39*75

$GPGLL,5128.76994,N,00236.28808,W,091954.00,A,A*7D

$GPRMC,091955.00,A,5128.76994,N,00236.28815,W,0.031,,251124,,,A*6A

$GPVTG,,T,,M,0.031,N,0.057,K,A*23

$GPGGA,091955.00,5128.76994,N,00236.28815,W,1,08,1.15,78.7,M,48.6,M,,*7A

$GPGSA,A,3,30,20,05,13,07,14,11,15,,,,,1.84,1.15,1.43*0C

$GPGSV,3,1,12,05,64,285,33,07,42,059,28,09,08,089,21,11,18,209,40*72

$GPGSV,3,2,12,13,46,269,37,14,19,142,38,15,13,278,25,18,13,329,20*7E

$GPGSV,3,3,12,20,64,195,34,22,04,157,25,27,01,028,,30,72,106,39*75

$GPGLL,5128.76994,N,00236.28815,W,091955.00,A,A*70

$GPRMC,091956.00,A,5128.77000,N,00236.28823,W,0.025,,251124,,,A*6C

$GPVTG,,T,,M,0.025,N,0.045,K,A*25

$GPGGA,091956.00,5128.77000,N,00236.28823,W,1,08,1.15,78.6,M,48.6,M,,*78

$GPGSA,A,3,30,20,05,13,07,14,11,15,,,,,1.84,1.15,1.43*0C

$GPGSV,3,1,12,05,64,285,34,07,42,059,28,09,08,089,21,11,18,209,42*77

$GPGSV,3,2,12,13,46,269,38,14,19,142,39,15,13,278,25,18,13,329,20*70

$GPGSV,3,3,12,20,64,195,35,22,04,157,25,27,01,028,,30,72,106,40*7A

$GPGLL,5128.77000,N,00236.28823,W,091956.00,A,A*73

$GPRMC,091957.00,A,5128.77013,N,00236.28827,W,0.023,,251124,,,A*6D

$GPVTG,,T,,M,0.023,N,0.043,K,A*25

$GPGGA,091957.00,5128.77013,N,00236.28827,W,1,08,1.15,78.5,M,48.6,M,,*7C

$GPGSA,A,3,30,20,05,13,07,14,11,15,,,,,1.84,1.15,1.43*0C

$GPGSV,3,1,12,05,64,285,34,07,42,059,28,09,08,089,21,11,18,209,42*77

$GPGSV,3,2,12,13,46,269,38,14,19,142,39,15,13,278,25,18,13,329,20*70

$GPGSV,3,3,12,20,64,195,35,22,04,157,25,27,01,028,,30,72,106,40*7A

$GPGLL,5128.77013,N,00236.28827,W,091957.00,A,A*74

$GPRMC,091958.00,A,5128.77038,N,00236.28827,W,0.108,,251124,,,A*63

$GPVTG,,T,,M,0.108,N,0.200,K,A*28

$GPGGA,091958.00,5128.77038,N,00236.28827,W,1,08,1.15,78.0,M,48.6,M,,*7F

$GPGSA,A,3,30,20,05,13,07,14,11,15,,,,,1.84,1.15,1.43*0C

$GPGSV,3,1,12,05,64,285,34,07,42,059,28,09,08,089,21,11,18,209,42*77

$GPGSV,3,2,12,13,46,269,38,14,19,142,39,15,13,278,26,18,13,329,21*72

$GPGSV,3,3,12,20,64,195,36,22,04,157,25,27,01,028,,30,72,106,40*79

$GPGLL,5128.77038,N,00236.28827,W,091958.00,A,A*72

$GPRMC,091959.00,A,5128.77057,N,00236.28828,W,0.011,,251124,,,A*6D

$GPVTG,,T,,M,0.011,N,0.020,K,A*21

$GPGGA,091959.00,5128.77057,N,00236.28828,W,1,08,1.15,77.6,M,48.6,M,,*71

$GPGSA,A,3,30,20,05,13,07,14,11,15,,,,,1.84,1.15,1.43*0C

$GPGSV,3,1,12,05,64,285,34,07,42,059,28,09,08,089,21,11,18,209,42*77

$GPGSV,3,2,12,13,46,269,38,14,19,142,39,15,13,278,26,18,13,329,20*73

$GPGSV,3,3,12,20,64,195,36,22,04,157,26,27,01,028,,30,72,106,40*7A

$GPGLL,5128.77057,N,00236.28828,W,091959.00,A,A*75

$GPTXT,01,01,01,NMEA unknown msg*58

$GPRMC,092000.00,A,5128.77066,N,00236.28830,W,0.044,,251124,,,A*60

$GPVTG,,T,,M,0.044,N,0.081,K,A*2A

$GPGGA,092000.00,5128.77066,N,00236.28830,W,1,08,1.15,77.4,M,48.6,M,,*7E

$GPGSA,A,3,30,20,05,13,07,14,11,15,,,,,1.84,1.15,1.43*0C

$GPGSV,3,1,12,05,64,285,34,07,42,059,28,09,08,089,22,11,18,209,42*74

$GPGSV,3,2,12,13,46,269,38,14,19,142,39,15,13,278,26,18,13,329,20*73

$GPGSV,3,3,12,20,64,195,36,22,04,157,27,27,01,028,,30,72,106,40*7B

$GPGLL,5128.77066,N,00236.28830,W,092000.00,A,A*78

$GPRMC,092001.00,A,5128.77077,N,00236.28833,W,0.038,,251124,,,A*69

$GPVTG,,T,,M,0.038,N,0.070,K,A*2F

$GPGGA,092001.00,5128.77077,N,00236.28833,W,1,08,1.15,77.1,M,48.6,M,,*79

$GPGSA,A,3,30,20,05,13,07,14,11,15,,,,,1.84,1.15,1.43*0C

$GPGSV,3,1,12,05,64,285,34,07,42,059,29,09,08,089,22,11,18,209,42*75

$GPGSV,3,2,12,13,46,269,39,14,19,142,40,15,13,278,26,18,13,329,21*7D

$GPGSV,3,3,12,20,64,195,36,22,04,157,27,27,01,028,,30,72,106,40*7B

$GPGLL,5128.77077,N,00236.28833,W,092001.00,A,A*7A

$GPRMC,092002.00,A,5128.77085,N,00236.28836,W,0.027,,251124,,,A*6C

$GPVTG,,T,,M,0.027,N,0.050,K,A*23

$GPGGA,092002.00,5128.77085,N,00236.28836,W,1,08,1.15,76.9,M,48.6,M,,*7B

$GPGSA,A,3,30,20,05,13,07,14,11,15,,,,,1.84,1.15,1.43*0C

$GPGSV,3,1,12,05,64,285,34,07,42,059,29,09,08,089,23,11,18,209,42*74

$GPGSV,3,2,12,13,46,269,38,14,19,142,40,15,13,278,26,18,13,329,20*7D

$GPGSV,3,3,12,20,64,195,36,22,04,157,27,27,01,028,,30,72,106,40*7B

$GPGLL,5128.77085,N,00236.28836,W,092002.00,A,A*71

$GPTXT,01,01,01,NMEA unknown msg*58

$GPRMC,092003.00,A,5128.77088,N,00236.28844,W,0.080,,251124,,,A*68

$GPVTG,,T,,M,0.080,N,0.149,K,A*27

$GPGGA,092003.00,5128.77088,N,00236.28844,W,1,08,1.15,76.9,M,48.6,M,,*72

$GPGSA,A,3,30,20,05,13,07,14,11,15,,,,,1.84,1.15,1.43*0C

$GPGSV,3,1,12,05,64,285,34,07,42,059,29,09,08,089,22,11,18,209,42*75

$GPGSV,3,2,12,13,46,269,38,14,19,142,40,15,13,278,26,18,13,329,20*7D

$GPGSV,3,3,12,20,64,195,36,22,04,157,27,27,01,028,,30,72,106,40*7B

$GPGLL,5128.77088,N,00236.28844,W,092003.00,A,A*78

$GPRMC,092004.00,A,5128.77095,N,00236.28847,W,0.039,,251124,,,A*62

$GPVTG,,T,,M,0.039,N,0.073,K,A*2D

$GPGGA,092004.00,5128.77095,N,00236.28847,W,1,08,1.15,76.7,M,48.6,M,,*74

$GPGSA,A,3,30,20,05,13,07,14,11,15,,,,,1.84,1.15,1.43*0C

$GPGSV,3,1,12,05,64,285,34,07,42,059,29,09,08,089,21,11,18,209,42*76

$GPGSV,3,2,12,13,46,269,38,14,19,142,40,15,13,278,26,18,13,329,19*77

$GPGSV,3,3,12,20,64,195,36,22,04,157,27,27,01,028,,30,72,106,40*7B

$GPGLL,5128.77095,N,00236.28847,W,092004.00,A,A*70

$GPRMC,092005.00,A,5128.77102,N,00236.28849,W,0.042,,251124,,,A*6E

$GPVTG,,T,,M,0.042,N,0.077,K,A*25

$GPGGA,092005.00,5128.77102,N,00236.28849,W,1,08,1.15,76.6,M,48.6,M,,*75

$GPGSA,A,3,30,20,05,13,07,14,11,15,,,,,1.84,1.15,1.43*0C

$GPGSV,3,1,12,05,64,285,34,07,42,059,29,09,08,089,21,11,18,209,42*76

$GPGSV,3,2,12,13,46,269,38,14,19,142,40,15,13,278,25,18,13,329,20*7E

$GPGSV,3,3,12,20,64,195,36,22,04,157,28,27,01,028,,30,72,106,40*74

$GPGLL,5128.77102,N,00236.28849,W,092005.00,A,A*70

$GPRMC,092006.00,A,5128.77111,N,00236.28849,W,0.040,,251124,,,A*6D

$GPVTG,,T,,M,0.040,N,0.074,K,A*24

$GPGGA,092006.00,5128.77111,N,00236.28849,W,1,08,1.15,76.4,M,48.6,M,,*76

$GPGSA,A,3,30,20,05,13,07,14,11,15,,,,,1.84,1.15,1.43*0C

$GPGSV,3,1,12,05,64,285,34,07,42,059,29,09,08,089,21,11,18,209,42*76

$GPGSV,3,2,12,13,46,269,38,14,19,142,40,15,13,278,25,18,13,329,19*74

$GPGSV,3,3,12,20,64,195,36,22,04,157,28,27,01,028,,30,72,106,40*74

$GPGLL,5128.77111,N,00236.28849,W,092006.00,A,A*71

$GPRMC,092007.00,A,5128.77115,N,00236.28855,W,0.018,,251124,,,A*68

$GPVTG,,T,,M,0.018,N,0.033,K,A*2A

$GPGGA,092007.00,5128.77115,N,00236.28855,W,1,08,1.15,76.3,M,48.6,M,,*79

$GPGSA,A,3,30,20,05,13,07,14,11,15,,,,,1.84,1.15,1.43*0C

$GPGSV,3,1,12,05,64,285,34,07,42,059,29,09,08,089,21,11,18,209,42*76

$GPGSV,3,2,12,13,46,269,38,14,19,142,40,15,13,278,25,18,13,329,19*74

$GPGSV,3,3,12,20,64,195,36,22,04,157,28,27,01,028,,30,72,106,41*75

$GPGLL,5128.77115,N,00236.28855,W,092007.00,A,A*79

$GPRMC,092008.00,A,5128.77115,N,00236.28863,W,0.033,,251124,,,A*6B

$GPVTG,,T,,M,0.033,N,0.061,K,A*24

$GPGGA,092008.00,5128.77115,N,00236.28863,W,1,08,1.15,76.3,M,48.6,M,,*73

$GPGSA,A,3,30,20,05,13,07,14,11,15,,,,,1.84,1.15,1.43*0C

$GPGSV,3,1,12,05,64,285,34,07,42,059,29,09,08,089,21,11,18,209,42*76

$GPGSV,3,2,12,13,46,269,38,14,19,142,40,15,13,278,26,18,13,329,19*77

$GPGSV,3,3,12,20,64,195,36,22,04,157,28,27,01,028,,30,72,106,41*75

$GPGLL,5128.77115,N,00236.28863,W,092008.00,A,A*73

$GPTXT,01,01,01,NMEA unknown msg*58

$GPRMC,092009.00,A,5128.77119,N,00236.28867,W,0.057,,251124,,,A*60

$GPVTG,,T,,M,0.057,N,0.106,K,A*26

$GPGGA,092009.00,5128.77119,N,00236.28867,W,1,08,1.15,76.2,M,48.6,M,,*7B

$GPGSA,A,3,30,20,05,13,07,14,11,15,,,,,1.84,1.15,1.43*0C

$GPGSV,3,1,12,05,64,285,34,07,42,059,29,09,08,089,20,11,18,209,43*76

$GPGSV,3,2,12,13,46,269,38,14,19,142,40,15,13,278,26,18,13,329,19*77

$GPGSV,3,3,12,20,64,195,36,22,04,157,28,27,01,028,,30,72,106,41*75

$GPGLL,5128.77119,N,00236.28867,W,092009.00,A,A*7A

$GPRMC,092010.00,A,5128.77127,N,00236.28870,W,0.026,,251124,,,A*65

$GPVTG,,T,,M,0.026,N,0.048,K,A*2B

$GPGGA,092010.00,5128.77127,N,00236.28870,W,1,08,1.15,76.0,M,48.6,M,,*7A

$GPGSA,A,3,30,20,05,13,07,14,11,15,,,,,1.84,1.15,1.43*0C

$GPGSV,3,1,12,05,64,285,34,07,42,059,28,09,08,089,19,11,18,209,43*7D

$GPGSV,3,2,12,13,46,269,38,14,19,142,40,15,13,278,26,18,13,329,19*77

$GPGSV,3,3,12,20,64,195,37,22,04,157,29,27,01,028,,30,72,106,41*75

$GPGLL,5128.77127,N,00236.28870,W,092010.00,A,A*79

$GPRMC,092011.00,A,5128.77134,N,00236.28875,W,0.017,,251124,,,A*61

$GPVTG,,T,,M,0.017,N,0.031,K,A*27

$GPGGA,092011.00,5128.77134,N,00236.28875,W,1,08,1.15,75.8,M,48.6,M,,*77

$GPGSA,A,3,30,20,05,13,07,14,11,15,,,,,1.84,1.15,1.43*0C

$GPGSV,3,1,12,05,64,285,34,07,42,059,29,09,08,089,18,11,18,209,43*7D

$GPGSV,3,2,12,13,46,269,38,14,19,142,40,15,13,278,26,18,13,329,19*77

$GPGSV,3,3,12,20,64,195,37,22,04,157,29,27,01,028,,30,72,106,41*75

$GPGLL,5128.77134,N,00236.28875,W,092011.00,A,A*7F

$GPRMC,092012.00,A,5128.77141,N,00236.28882,W,0.069,,251124,,,A*61

$GPVTG,,T,,M,0.069,N,0.127,K,A*28

$GPGGA,092012.00,5128.77141,N,00236.28882,W,1,08,1.15,75.6,M,48.6,M,,*70

$GPGSA,A,3,30,20,05,13,07,14,11,15,,,,,1.84,1.15,1.43*0C

$GPGSV,3,1,12,05,64,285,34,07,42,059,29,09,08,089,20,11,18,209,43*76

$GPGSV,3,2,12,13,46,269,38,14,19,142,40,15,13,278,26,18,13,329,19*77

$GPGSV,3,3,12,20,64,195,37,22,04,157,29,27,01,028,,30,72,106,41*75

$GPGLL,5128.77141,N,00236.28882,W,092012.00,A,A*76

$GPTXT,01,01,01,NMEA unknown msg*58

$GPRMC,092013.00,A,5128.77145,N,00236.28891,W,0.011,,251124,,,A*69

$GPVTG,,T,,M,0.011,N,0.020,K,A*21

$GPGGA,092013.00,5128.77145,N,00236.28891,W,1,08,1.15,75.5,M,48.6,M,,*74

$GPGSA,A,3,30,20,05,13,07,14,11,15,,,,,1.84,1.15,1.43*0C

$GPGSV,3,1,12,05,64,285,34,07,42,059,29,09,08,089,20,11,18,209,43*76

$GPGSV,3,2,12,13,46,269,38,14,19,142,40,15,13,278,26,18,13,329,20*7D

$GPGSV,3,3,12,20,64,195,37,22,04,157,29,27,01,028,,30,72,106,41*75

$GPGLL,5128.77145,N,00236.28891,W,092013.00,A,A*71

$GPTXT,01,01,01,NMEA unknown msg*58

$GPRMC,092014.00,A,5128.77149,N,00236.28900,W,0.115,,251124,,,A*6E

$GPVTG,,T,,M,0.115,N,0.213,K,A*26

$GPGGA,092014.00,5128.77149,N,00236.28900,W,1,08,1.15,75.4,M,48.6,M,,*77

$GPGSA,A,3,30,20,05,13,07,14,11,15,,,,,1.84,1.15,1.43*0C

$GPGSV,3,1,12,05,64,285,34,07,42,059,29,09,08,089,20,11,18,209,43*76

$GPGSV,3,2,12,13,46,269,38,14,19,142,40,15,13,278,26,18,13,329,20*7D

$GPGSV,3,3,12,20,64,195,37,22,04,157,28,27,01,028,,30,72,106,41*74

$GPGLL,5128.77149,N,00236.28900,W,092014.00,A,A*73

$GPRMC,092015.00,A,5128.77153,N,00236.28907,W,0.067,,251124,,,A*67

$GPVTG,,T,,M,0.067,N,0.124,K,A*25

$GPGGA,092015.00,5128.77153,N,00236.28907,W,1,08,1.15,75.3,M,48.6,M,,*7D

$GPGSA,A,3,30,20,05,13,07,14,11,15,,,,,1.84,1.15,1.43*0C

$GPGSV,3,1,12,05,64,285,34,07,42,059,29,09,08,089,21,11,18,209,43*77

$GPGSV,3,2,12,13,46,269,38,14,19,142,40,15,13,278,26,18,13,329,20*7D

$GPGSV,3,3,12,20,64,195,37,22,04,157,29,27,01,028,,30,72,106,41*75

$GPGLL,5128.77153,N,00236.28907,W,092015.00,A,A*7E

$GPRMC,092016.00,A,5128.77160,N,00236.28913,W,0.054,,251124,,,A*61

$GPVTG,,T,,M,0.054,N,0.099,K,A*22

$GPGGA,092016.00,5128.77160,N,00236.28913,W,1,08,1.15,75.1,M,48.6,M,,*79

$GPGSA,A,3,30,20,05,13,07,14,11,15,,,,,1.84,1.15,1.43*0C

$GPGSV,3,1,12,05,64,285,34,07,42,059,29,09,08,089,20,11,18,209,43*76

$GPGSV,3,2,12,13,46,269,38,14,19,142,40,15,13,278,26,18,13,329,20*7D

$GPGSV,3,3,12,20,64,195,37,22,04,157,29,27,01,028,,30,72,106,41*75

$GPGLL,5128.77160,N,00236.28913,W,092016.00,A,A*78

$GPRMC,092017.00,A,5128.77162,N,00236.28921,W,0.010,,251124,,,A*63

$GPVTG,,T,,M,0.010,N,0.018,K,A*2B

$GPGGA,092017.00,5128.77162,N,00236.28921,W,1,08,1.15,75.0,M,48.6,M,,*7A

$GPGSA,A,3,30,20,05,13,07,14,11,15,,,,,1.84,1.15,1.43*0C

$GPGSV,3,1,12,05,64,285,34,07,42,059,30,09,08,089,20,11,18,209,43*7E

$GPGSV,3,2,12,13,46,269,38,14,19,142,40,15,13,278,26,18,13,329,19*77

$GPGSV,3,3,12,20,64,195,37,22,04,157,29,27,01,028,,30,72,106,41*75

$GPGLL,5128.77162,N,00236.28921,W,092017.00,A,A*7A

$GPRMC,092018.00,A,5128.77170,N,00236.28928,W,0.029,,251124,,,A*6C

$GPVTG,,T,,M,0.029,N,0.054,K,A*29

$GPGGA,092018.00,5128.77170,N,00236.28928,W,1,08,1.15,74.8,M,48.6,M,,*76

$GPGSA,A,3,30,20,05,13,07,14,11,15,,,,,1.84,1.15,1.43*0C

$GPGSV,3,1,12,05,64,285,34,07,42,059,30,09,08,089,19,11,18,209,43*74

$GPGSV,3,2,12,13,46,269,38,14,19,142,40,15,13,278,26,18,13,329,19*77

$GPGSV,3,3,12,20,64,195,38,22,04,157,29,27,01,028,,30,72,106,41*7A

$GPGLL,5128.77170,N,00236.28928,W,092018.00,A,A*7F

$GPRMC,092019.00,A,5128.77182,N,00236.28932,W,0.046,,251124,,,A*62

$GPVTG,,T,,M,0.046,N,0.085,K,A*2C

$GPGGA,092019.00,5128.77182,N,00236.28932,W,1,08,1.15,74.4,M,48.6,M,,*7D

$GPGSA,A,3,30,20,05,13,07,14,11,15,,,,,1.84,1.15,1.43*0C

$GPGSV,3,1,12,05,64,285,34,07,42,059,30,09,08,089,19,11,18,209,43*74

$GPGSV,3,2,12,13,46,269,39,14,19,142,40,15,13,278,26,18,13,329,18*77

$GPGSV,3,3,12,20,64,195,38,22,04,157,29,27,01,028,,30,72,106,41*7A

$GPGLL,5128.77182,N,00236.28932,W,092019.00,A,A*78

$GPRMC,092020.00,A,5128.77193,N,00236.28936,W,0.018,,251124,,,A*67

$GPVTG,,T,,M,0.018,N,0.033,K,A*2A

$GPGGA,092020.00,5128.77193,N,00236.28936,W,1,08,1.15,74.1,M,48.6,M,,*76

$GPGSA,A,3,30,20,05,13,07,14,11,15,,,,,1.84,1.15,1.43*0C

$GPGSV,3,1,12,05,64,285,34,07,42,059,30,09,08,089,20,11,18,209,43*7E

$GPGSV,3,2,12,13,46,269,38,14,19,142,40,15,13,278,26,18,13,329,18*76

$GPGSV,3,3,12,20,64,195,38,22,04,157,29,27,01,028,,30,72,106,41*7A

$GPGLL,5128.77193,N,00236.28936,W,092020.00,A,A*76

$GPRMC,092021.00,A,5128.77210,N,00236.28936,W,0.048,,251124,,,A*6B

$GPVTG,,T,,M,0.048,N,0.088,K,A*2F

$GPGGA,092021.00,5128.77210,N,00236.28936,W,1,08,1.15,73.7,M,48.6,M,,*7E

$GPGSA,A,3,30,20,05,13,07,14,11,15,,,,,1.84,1.15,1.43*0C

$GPGSV,3,1,12,05,64,285,34,07,42,059,30,09,08,089,20,11,18,209,43*7E

$GPGSV,3,2,12,13,46,269,38,14,19,142,40,15,13,278,26,18,13,329,17*79

$GPGSV,3,3,12,20,64,195,38,22,04,157,29,27,01,028,,30,72,106,41*7A

$GPGLL,5128.77210,N,00236.28936,W,092021.00,A,A*7F

$GPRMC,092022.00,A,5128.77221,N,00236.28938,W,0.023,,251124,,,A*69

$GPVTG,,T,,M,0.023,N,0.042,K,A*24

$GPGGA,092022.00,5128.77221,N,00236.28938,W,1,08,1.15,73.4,M,48.6,M,,*72

$GPGSA,A,3,30,20,05,13,07,14,11,15,,,,,1.84,1.15,1.43*0C

$GPGSV,3,1,12,05,64,285,34,07,42,059,30,09,08,089,19,11,18,209,43*74

$GPGSV,3,2,12,13,46,269,38,14,19,142,40,15,13,278,26,18,13,329,16*78

$GPGSV,3,3,12,20,64,195,38,22,04,157,29,27,01,028,,30,72,106,41*7A

$GPGLL,5128.77221,N,00236.28938,W,092022.00,A,A*70

$GPRMC,092023.00,A,5128.77230,N,00236.28942,W,0.117,,251124,,,A*63

$GPVTG,,T,,M,0.117,N,0.216,K,A*21

$GPGGA,092023.00,5128.77230,N,00236.28942,W,1,08,1.15,73.2,M,48.6,M,,*78

$GPGSA,A,3,30,20,05,13,07,14,11,15,,,,,1.84,1.15,1.43*0C

$GPGSV,3,1,12,05,64,284,34,07,42,059,30,09,08,089,19,11,18,209,43*75

$GPGSV,3,2,12,13,46,269,38,14,19,142,40,15,13,278,26,18,13,329,*7F

$GPGSV,3,3,12,20,64,195,38,22,04,157,30,27,01,028,,30,72,106,42*71

$GPGLL,5128.77230,N,00236.28942,W,092023.00,A,A*7C

$GPRMC,092024.00,A,5128.77245,N,00236.28943,W,0.105,,251124,,,A*64

$GPVTG,,T,,M,0.105,N,0.194,K,A*2B

$GPGGA,092024.00,5128.77245,N,00236.28943,W,1,08,1.15,72.8,M,48.6,M,,*77

$GPGSA,A,3,30,20,05,13,07,14,11,15,,,,,1.84,1.15,1.43*0C

$GPGSV,3,1,12,05,64,284,34,07,42,059,30,09,08,089,19,11,18,209,43*75

$GPGSV,3,2,12,13,46,269,38,14,19,142,40,15,13,278,26,18,13,329,*7F

$GPGSV,3,3,12,20,64,195,38,22,04,157,30,27,01,028,,30,72,106,41*72

$GPGLL,5128.77245,N,00236.28943,W,092024.00,A,A*78

$GPRMC,092025.00,A,5128.77254,N,00236.28947,W,0.060,,251124,,,A*63

$GPVTG,,T,,M,0.060,N,0.112,K,A*27

$GPGGA,092025.00,5128.77254,N,00236.28947,W,1,08,1.15,72.5,M,48.6,M,,*7F

$GPGSA,A,3,30,20,05,13,07,14,11,15,,,,,1.84,1.15,1.43*0C

$GPGSV,3,1,12,05,64,284,34,07,42,059,30,09,08,089,18,11,18,209,43*74

$GPGSV,3,2,12,13,46,269,38,14,19,142,40,15,13,278,26,18,13,329,*7F

$GPGSV,3,3,12,20,64,195,38,22,04,157,30,27,01,028,,30,72,106,41*72

$GPGLL,5128.77254,N,00236.28947,W,092025.00,A,A*7D

$GPRMC,092026.00,A,5128.77263,N,00236.28949,W,0.008,,251124,,,A*64

$GPVTG,,T,,M,0.008,N,0.014,K,A*2E

$GPGGA,092026.00,5128.77263,N,00236.28949,W,1,08,1.15,72.3,M,48.6,M,,*70

$GPGSA,A,3,30,20,05,13,07,14,11,15,,,,,1.84,1.15,1.43*0C

$GPGSV,3,1,12,05,64,284,34,07,42,059,29,09,08,089,18,11,18,209,43*7C

$GPGSV,3,2,12,13,46,269,38,14,19,142,40,15,13,278,27,18,13,329,*7E

$GPGSV,3,3,12,20,64,195,38,22,04,157,29,27,01,028,,30,72,106,41*7A

$GPGLL,5128.77263,N,00236.28949,W,092026.00,A,A*74

$GPRMC,092027.00,A,5128.77271,N,00236.28952,W,0.022,,251124,,,A*64

$GPVTG,,T,,M,0.022,N,0.040,K,A*27

$GPGGA,092027.00,5128.77271,N,00236.28952,W,1,08,1.15,72.0,M,48.6,M,,*7B

$GPGSA,A,3,30,20,05,13,07,14,11,15,,,,,1.84,1.15,1.43*0C

$GPGSV,3,1,12,05,64,284,34,07,42,059,29,09,07,090,17,11,18,209,43*74

$GPGSV,3,2,12,13,46,269,38,14,19,142,40,15,13,278,27,18,13,329,*7E

$GPGSV,3,3,12,20,64,195,38,22,04,157,30,27,01,028,,30,72,106,41*72

$GPGLL,5128.77271,N,00236.28952,W,092027.00,A,A*7C

$GPRMC,092028.00,A,5128.77271,N,00236.28957,W,0.017,,251124,,,A*68

$GPVTG,,T,,M,0.017,N,0.031,K,A*27

$GPGGA,092028.00,5128.77271,N,00236.28957,W,1,08,1.15,72.0,M,48.6,M,,*71

$GPGSA,A,3,30,20,05,13,07,14,11,15,,,,,1.84,1.15,1.43*0C

$GPGSV,3,1,12,05,64,284,34,07,42,059,29,09,07,090,17,11,18,209,42*75

$GPGSV,3,2,12,13,46,269,36,14,19,142,39,15,13,278,27,18,13,329,*7E

$GPGSV,3,3,12,20,64,195,36,22,04,157,29,27,01,028,,30,72,106,41*74

$GPGLL,5128.77271,N,00236.28957,W,092028.00,A,A*76

$GPRMC,092029.00,A,5128.77276,N,00236.28959,W,0.047,,251124,,,A*65

$GPVTG,,T,,M,0.047,N,0.087,K,A*2F

$GPGGA,092029.00,5128.77276,N,00236.28959,W,1,08,1.15,71.9,M,48.6,M,,*73

$GPGSA,A,3,30,20,05,13,07,14,11,15,,,,,1.84,1.15,1.43*0C

$GPGSV,3,1,12,05,64,284,34,07,42,059,29,09,07,090,16,11,18,209,43*75

$GPGSV,3,2,12,13,46,269,38,14,19,142,40,15,13,278,27,18,13,329,*7E

$GPGSV,3,3,12,20,64,195,37,22,04,157,29,27,01,028,,30,72,106,41*75

$GPGLL,5128.77276,N,00236.28959,W,092029.00,A,A*7E

$GPRMC,092030.00,A,5128.77281,N,00236.28958,W,0.076,,251124,,,A*66

$GPVTG,,T,,M,0.076,N,0.141,K,A*26

$GPGGA,092030.00,5128.77281,N,00236.28958,W,1,08,1.15,71.7,M,48.6,M,,*7C

$GPGSA,A,3,30,20,05,13,07,14,11,15,,,,,1.84,1.15,1.43*0C

$GPGSV,3,1,12,05,64,284,34,07,42,059,29,09,07,090,15,11,18,209,43*76

$GPGSV,3,2,12,13,46,269,38,14,19,142,40,15,13,278,27,18,13,329,*7E

$GPGSV,3,3,12,20,64,195,37,22,04,157,29,27,01,028,,30,72,106,41*75

$GPGLL,5128.77281,N,00236.28958,W,092030.00,A,A*7F

$GPTXT,01,01,01,NMEA unknown msg*58

$GPRMC,092031.00,A,5128.77282,N,00236.28961,W,0.024,,251124,,,A*69

$GPVTG,,T,,M,0.024,N,0.044,K,A*25

$GPGGA,092031.00,5128.77282,N,00236.28961,W,1,08,1.15,71.7,M,48.6,M,,*74

$GPGSA,A,3,30,20,05,13,07,14,11,15,,,,,1.84,1.15,1.43*0C

$GPGSV,3,1,12,05,64,284,34,07,42,059,29,09,07,090,15,11,18,209,43*76

$GPGSV,3,2,12,13,46,269,38,14,19,142,40,15,13,278,27,18,13,329,*7E

$GPGSV,3,3,12,20,64,195,37,22,04,157,30,27,01,028,,30,72,106,41*7D

$GPGLL,5128.77282,N,00236.28961,W,092031.00,A,A*77

$GPRMC,092032.00,A,5128.77284,N,00236.28964,W,0.076,,251124,,,A*6E

$GPVTG,,T,,M,0.076,N,0.142,K,A*25

$GPGGA,092032.00,5128.77284,N,00236.28964,W,1,08,1.15,71.6,M,48.6,M,,*75

$GPGSA,A,3,30,20,05,13,07,14,11,15,,,,,1.84,1.15,1.43*0C

$GPGSV,3,1,12,05,64,284,34,07,42,059,29,09,07,090,14,11,18,209,43*77

$GPGSV,3,2,12,13,46,269,37,14,19,142,40,15,13,278,27,18,13,329,*71

$GPGSV,3,3,12,20,64,195,37,22,04,157,30,27,01,028,,30,72,106,41*7D

$GPGLL,5128.77284,N,00236.28964,W,092032.00,A,A*77

$GPRMC,092033.00,A,5128.77286,N,00236.28967,W,0.066,,251124,,,A*6F

$GPVTG,,T,,M,0.066,N,0.122,K,A*22

$GPGGA,092033.00,5128.77286,N,00236.28967,W,1,08,1.15,71.6,M,48.6,M,,*75

$GPGSA,A,3,30,20,05,13,07,14,11,15,,,,,1.84,1.15,1.43*0C

$GPGSV,3,1,12,05,64,284,34,07,42,059,29,09,07,090,14,11,18,209,43*77

$GPGSV,3,2,12,13,46,269,37,14,19,142,40,15,13,278,27,18,13,329,*71

$GPGSV,3,3,12,20,64,195,37,22,04,157,29,27,01,028,,30,72,106,41*75

$GPGLL,5128.77286,N,00236.28967,W,092033.00,A,A*77

$GPTXT,01,01,01,NMEA unknown msg*58

$GPRMC,092034.00,A,5128.77285,N,00236.28970,W,0.035,,251124,,,A*6B

$GPVTG,,T,,M,0.035,N,0.065,K,A*26

$GPGGA,092034.00,5128.77285,N,00236.28970,W,1,08,1.15,71.6,M,48.6,M,,*77

$GPGSA,A,3,30,20,05,13,07,14,11,15,,,,,1.84,1.15,1.43*0C

$GPGSV,3,1,12,05,64,284,34,07,42,059,29,09,07,090,13,11,18,209,43*70

$GPGSV,3,2,12,13,46,269,37,14,19,142,40,15,13,278,27,18,13,329,*71

$GPGSV,3,3,12,20,64,195,37,22,04,157,29,27,01,028,,30,72,106,41*75

$GPGLL,5128.77285,N,00236.28970,W,092034.00,A,A*75

$GPTXT,01,01,01,NMEA unknown msg*58

$GPRMC,092035.00,A,5128.77288,N,00236.28974,W,0.016,,251124,,,A*62

$GPVTG,,T,,M,0.016,N,0.030,K,A*27

$GPGGA,092035.00,5128.77288,N,00236.28974,W,1,08,1.15,71.5,M,48.6,M,,*7C

$GPGSA,A,3,30,20,05,13,07,14,11,15,,,,,1.84,1.15,1.43*0C

$GPGSV,3,1,12,05,64,284,34,07,42,059,29,09,07,090,,11,18,209,43*72

$GPGSV,3,2,12,13,46,269,37,14,19,142,40,15,13,278,27,18,13,328,*70

$GPGSV,3,3,12,20,64,195,37,22,04,157,29,27,01,028,,30,72,106,41*75

$GPGLL,5128.77288,N,00236.28974,W,092035.00,A,A*7D

$GPRMC,092036.00,A,5128.77290,N,00236.28977,W,0.015,,251124,,,A*68

$GPVTG,,T,,M,0.015,N,0.029,K,A*2C

$GPGGA,092036.00,5128.77290,N,00236.28977,W,1,08,1.15,71.5,M,48.6,M,,*75

$GPGSA,A,3,30,20,05,13,07,14,11,15,,,,,1.84,1.15,1.43*0C

$GPGSV,3,1,12,05,64,284,35,07,42,059,29,09,07,090,,11,18,209,43*73

$GPGSV,3,2,12,13,46,269,37,14,19,142,40,15,13,278,27,18,13,328,*70

$GPGSV,3,3,12,20,64,195,37,22,04,157,29,27,01,028,,30,72,106,41*75

$GPGLL,5128.77290,N,00236.28977,W,092036.00,A,A*74

$GPRMC,092037.00,A,5128.77291,N,00236.28980,W,0.044,,251124,,,A*64

$GPVTG,,T,,M,0.044,N,0.081,K,A*2A

$GPGGA,092037.00,5128.77291,N,00236.28980,W,1,08,1.15,71.5,M,48.6,M,,*7D

$GPGSA,A,3,30,20,05,13,07,14,11,15,,,,,1.84,1.15,1.43*0C

$GPGSV,3,1,12,05,64,284,35,07,42,059,28,09,07,090,,11,18,209,43*72

$GPGSV,3,2,12,13,46,269,37,14,19,142,40,15,13,278,27,18,13,328,*70

$GPGSV,3,3,12,20,64,195,37,22,04,157,29,27,01,028,,30,72,106,41*75

$GPGLL,5128.77291,N,00236.28980,W,092037.00,A,A*7C

$GPTXT,01,01,01,NMEA unknown msg*58

$GPRMC,092038.00,A,5128.77296,N,00236.28983,W,0.033,,251124,,,A*6F

$GPVTG,,T,,M,0.033,N,0.062,K,A*27

$GPGGA,092038.00,5128.77296,N,00236.28983,W,1,08,1.15,71.4,M,48.6,M,,*77

$GPGSA,A,3,30,20,05,13,07,14,11,15,,,,,1.84,1.15,1.43*0C

$GPGSV,3,1,12,05,64,284,35,07,42,059,29,09,07,090,,11,18,209,43*73

$GPGSV,3,2,12,13,46,269,37,14,19,142,39,15,13,278,28,18,13,328,*71

$GPGSV,3,3,12,20,64,195,37,22,04,157,30,27,01,028,,30,72,106,41*7D

$GPGLL,5128.77296,N,00236.28983,W,092038.00,A,A*77

$GPTXT,01,01,01,NMEA unknown msg*58

$GPRMC,092039.00,A,5128.77301,N,00236.28985,W,0.055,,251124,,,A*67

$GPVTG,,T,,M,0.055,N,0.102,K,A*20

$GPGGA,092039.00,5128.77301,N,00236.28985,W,1,08,1.15,71.3,M,48.6,M,,*78

$GPGSA,A,3,30,20,05,13,07,14,11,15,,,,,1.84,1.15,1.43*0C

$GPGSV,3,1,12,05,64,284,35,07,42,059,28,09,07,090,,11,18,209,43*72

$GPGSV,3,2,12,13,46,269,37,14,19,142,39,15,13,278,28,18,13,328,*71

$GPGSV,3,3,12,20,64,195,37,22,04,157,30,27,01,028,,30,72,106,41*7D

$GPGLL,5128.77301,N,00236.28985,W,092039.00,A,A*7F

$GPRMC,092040.00,A,5128.77301,N,00236.28988,W,0.013,,251124,,,A*66

$GPVTG,,T,,M,0.013,N,0.024,K,A*27

$GPGGA,092040.00,5128.77301,N,00236.28988,W,1,08,1.15,71.2,M,48.6,M,,*7A

$GPGSA,A,3,30,20,05,13,07,14,11,15,,,,,1.84,1.15,1.43*0C

$GPGSV,3,1,12,05,64,284,35,07,42,059,29,09,07,090,,11,18,209,43*73

$GPGSV,3,2,12,13,46,269,36,14,19,142,40,15,13,278,28,18,13,328,21*7D

$GPGSV,3,3,12,20,64,195,37,22,04,157,30,27,01,028,,30,72,106,41*7D

$GPGLL,5128.77301,N,00236.28988,W,092040.00,A,A*7C

$GPRMC,092041.00,A,5128.77303,N,00236.28989,W,0.033,,251124,,,A*66

$GPVTG,,T,,M,0.033,N,0.060,K,A*25

$GPGGA,092041.00,5128.77303,N,00236.28989,W,1,08,1.15,71.2,M,48.6,M,,*78

$GPGSA,A,3,30,20,05,13,07,14,11,15,,,,,1.84,1.15,1.43*0C

$GPGSV,3,1,12,05,64,284,36,07,42,059,29,09,07,090,,11,18,209,44*77

$GPGSV,3,2,12,13,46,269,36,14,19,142,40,15,13,278,28,18,13,328,20*7C

$GPGSV,3,3,12,20,64,195,37,22,04,157,30,27,01,028,,30,72,106,41*7D

$GPGLL,5128.77303,N,00236.28989,W,092041.00,A,A*7E

$GPRMC,092042.00,A,5128.77304,N,00236.28990,W,0.066,,251124,,,A*6A

$GPVTG,,T,,M,0.066,N,0.122,K,A*22

$GPGGA,092042.00,5128.77304,N,00236.28990,W,1,08,1.15,71.2,M,48.6,M,,*74

$GPGSA,A,3,30,20,05,13,07,14,11,15,,,,,1.84,1.15,1.43*0C

$GPGSV,3,1,12,05,64,284,35,07,42,059,29,09,07,090,,11,18,209,44*74

$GPGSV,3,2,12,13,46,269,36,14,19,142,39,15,13,278,28,18,13,328,20*72

$GPGSV,3,3,12,20,64,195,37,22,04,157,30,27,01,028,,30,72,106,41*7D

$GPGLL,5128.77304,N,00236.28990,W,092042.00,A,A*72

$GPRMC,092043.00,A,5128.77304,N,00236.28991,W,0.040,,251124,,,A*6E

$GPVTG,,T,,M,0.040,N,0.075,K,A*25

$GPGGA,092043.00,5128.77304,N,00236.28991,W,1,08,1.15,71.3,M,48.6,M,,*75

$GPGSA,A,3,30,20,05,13,07,14,11,15,,,,,1.84,1.15,1.43*0C

$GPGSV,3,1,12,05,64,284,35,07,42,059,29,09,07,090,,11,18,209,44*74

$GPGSV,3,2,12,13,46,269,36,14,19,142,40,15,13,278,28,18,13,328,21*7D

$GPGSV,3,3,12,20,64,195,36,22,04,157,30,27,01,028,,30,72,106,41*7C

$GPGLL,5128.77304,N,00236.28991,W,092043.00,A,A*72

$GPTXT,01,01,01,NMEA unknown msg*58

$GPRMC,092044.00,A,5128.77303,N,00236.28993,W,0.015,,251124,,,A*6C

$GPVTG,,T,,M,0.015,N,0.027,K,A*22

$GPGGA,092044.00,5128.77303,N,00236.28993,W,1,08,1.15,71.4,M,48.6,M,,*70

$GPGSA,A,3,30,20,05,13,07,14,11,15,,,,,1.84,1.15,1.43*0C

$GPGSV,3,1,12,05,64,284,35,07,42,059,29,09,07,090,,11,18,209,44*74

$GPGSV,3,2,12,13,46,269,36,14,19,142,39,15,13,278,28,18,13,328,21*73

$GPGSV,3,3,12,20,64,195,36,22,04,157,30,27,01,028,,30,72,106,41*7C

$GPGLL,5128.77303,N,00236.28993,W,092044.00,A,A*70

$GPRMC,092045.00,A,5128.77303,N,00236.28994,W,0.040,,251124,,,A*6A

$GPVTG,,T,,M,0.040,N,0.075,K,A*25

$GPGGA,092045.00,5128.77303,N,00236.28994,W,1,08,1.15,71.4,M,48.6,M,,*76

$GPGSA,A,3,30,20,05,13,07,14,11,15,,,,,1.84,1.15,1.43*0C

$GPGSV,3,1,12,05,64,284,35,07,42,059,29,09,07,090,,11,18,209,44*74

$GPGSV,3,2,12,13,46,269,36,14,19,142,40,15,13,278,28,18,13,328,21*7D

$GPGSV,3,3,12,20,64,195,36,22,04,157,30,27,01,028,,30,72,106,41*7C

$GPGLL,5128.77303,N,00236.28994,W,092045.00,A,A*76

$GPRMC,092046.00,A,5128.77303,N,00236.28997,W,0.036,,251124,,,A*6B

$GPVTG,,T,,M,0.036,N,0.066,K,A*26

$GPGGA,092046.00,5128.77303,N,00236.28997,W,1,08,1.15,71.5,M,48.6,M,,*77

$GPGSA,A,3,30,20,05,13,07,14,11,15,,,,,1.84,1.15,1.43*0C

$GPGSV,3,1,12,05,64,284,35,07,42,059,29,09,07,090,,11,18,209,44*74

$GPGSV,3,2,12,13,46,269,36,14,19,142,40,15,13,278,28,18,13,328,21*7D

$GPGSV,3,3,12,20,64,195,36,22,04,157,30,27,01,028,,30,72,106,40*7D

$GPGLL,5128.77303,N,00236.28997,W,092046.00,A,A*76

$GPRMC,092047.00,A,5128.77303,N,00236.28999,W,0.035,,251124,,,A*67

$GPVTG,,T,,M,0.035,N,0.065,K,A*26

$GPGGA,092047.00,5128.77303,N,00236.28999,W,1,08,1.15,71.5,M,48.6,M,,*78

$GPGSA,A,3,30,20,05,13,07,14,11,15,,,,,1.84,1.15,1.43*0C

$GPGSV,3,1,12,05,64,284,35,07,42,059,29,09,07,090,,11,18,209,44*74

$GPGSV,3,2,12,13,46,269,36,14,19,142,40,15,13,278,29,18,13,328,22*7F

$GPGSV,3,3,12,20,64,195,36,22,04,157,30,27,01,028,,30,71,105,40*7D

$GPGLL,5128.77303,N,00236.28999,W,092047.00,A,A*79

$GPTXT,01,01,01,NMEA unknown msg*58

$GPRMC,092048.00,A,5128.77305,N,00236.28998,W,0.129,,251124,,,A*63

$GPVTG,,T,,M,0.129,N,0.239,K,A*21

$GPGGA,092048.00,5128.77305,N,00236.28998,W,1,08,1.15,71.5,M,48.6,M,,*70

$GPGSA,A,3,30,20,05,13,07,14,11,15,,,,,1.84,1.15,1.43*0C

$GPGSV,3,1,12,05,64,284,35,07,42,059,28,09,07,090,,11,18,209,44*75

$GPGSV,3,2,12,13,46,269,36,14,19,142,40,15,13,278,29,18,13,328,22*7F

$GPGSV,3,3,12,20,64,195,36,22,04,157,30,27,01,028,,30,71,105,40*7D

$GPGLL,5128.77305,N,00236.28998,W,092048.00,A,A*71

$GPRMC,092049.00,A,5128.77306,N,00236.28998,W,0.075,,251124,,,A*69

$GPVTG,,T,,M,0.075,N,0.138,K,A*2B

$GPGGA,092049.00,5128.77306,N,00236.28998,W,1,08,1.15,71.5,M,48.6,M,,*72

$GPGSA,A,3,30,20,05,13,07,14,11,15,,,,,1.84,1.15,1.43*0C

$GPGSV,3,1,12,05,64,284,35,07,42,059,28,09,07,090,,11,18,209,44*75

$GPGSV,3,2,12,13,46,269,36,14,19,142,40,15,13,278,29,18,13,328,21*7C

$GPGSV,3,3,12,20,64,195,37,22,04,157,30,27,01,028,,30,71,105,40*7C

$GPGLL,5128.77306,N,00236.28998,W,092049.00,A,A*73

$GPRMC,092050.00,A,5128.77307,N,00236.28998,W,0.050,,251124,,,A*67

$GPVTG,,T,,M,0.050,N,0.092,K,A*2D

$GPGGA,092050.00,5128.77307,N,00236.28998,W,1,08,1.15,71.5,M,48.6,M,,*7B

$GPGSA,A,3,30,20,05,13,07,14,11,15,,,,,1.84,1.15,1.43*0C

$GPGSV,3,1,12,05,64,284,36,07,42,059,28,09,07,090,,11,18,209,44*76

$GPGSV,3,2,12,13,46,269,36,14,19,142,40,15,13,278,29,18,13,328,21*7C

$GPGSV,3,3,12,20,64,195,36,22,04,157,30,27,01,028,,30,71,105,41*7C

$GPGLL,5128.77307,N,00236.28998,W,092050.00,A,A*7A

$GPRMC,092051.00,A,5128.77309,N,00236.28998,W,0.011,,251124,,,A*6D

$GPVTG,,T,,M,0.011,N,0.020,K,A*21

$GPGGA,092051.00,5128.77309,N,00236.28998,W,1,08,1.15,71.5,M,48.6,M,,*74

$GPGSA,A,3,30,20,05,13,07,14,11,15,,,,,1.84,1.15,1.43*0C

$GPGSV,3,1,12,05,64,284,36,07,42,059,28,09,07,090,,11,18,209,44*76

$GPGSV,3,2,12,13,46,269,37,14,19,142,39,15,13,278,29,18,13,328,21*73

$GPGSV,3,3,12,20,64,195,36,22,04,157,30,27,01,028,,30,71,105,40*7D

$GPGLL,5128.77309,N,00236.28998,W,092051.00,A,A*75

$GPTXT,01,01,01,NMEA unknown msg*58

$GPRMC,092052.00,A,5128.77311,N,00236.28998,W,0.038,,251124,,,A*6C

$GPVTG,,T,,M,0.038,N,0.071,K,A*2E

$GPGGA,092052.00,5128.77311,N,00236.28998,W,1,08,1.15,71.5,M,48.6,M,,*7E

$GPGSA,A,3,30,20,05,13,07,14,11,15,,,,,1.84,1.15,1.43*0C

$GPGSV,3,1,12,05,64,284,36,07,42,059,28,09,07,090,,11,18,209,44*76

$GPGSV,3,2,12,13,46,269,37,14,19,142,39,15,13,278,29,18,13,328,21*73

$GPGSV,3,3,12,20,64,195,36,22,04,157,30,27,01,028,,30,71,105,40*7D

$GPGLL,5128.77311,N,00236.28998,W,092052.00,A,A*7F

$GPRMC,092053.00,A,5128.77312,N,00236.28997,W,0.011,,251124,,,A*6A

$GPVTG,,T,,M,0.011,N,0.020,K,A*21

$GPGGA,092053.00,5128.77312,N,00236.28997,W,1,08,1.15,71.4,M,48.6,M,,*72

$GPGSA,A,3,30,20,05,13,07,14,11,15,,,,,1.84,1.15,1.43*0C

$GPGSV,3,1,12,05,64,284,36,07,42,059,28,09,07,090,,11,18,209,44*76

$GPGSV,3,2,12,13,46,269,37,14,19,142,40,15,13,278,29,18,13,328,22*7E

$GPGSV,3,3,12,20,64,195,36,22,04,157,30,27,01,028,,30,71,105,40*7D

$GPGLL,5128.77312,N,00236.28997,W,092053.00,A,A*72

$GPRMC,092054.00,A,5128.77313,N,00236.28994,W,0.023,,251124,,,A*6E

$GPVTG,,T,,M,0.023,N,0.043,K,A*25

$GPGGA,092054.00,5128.77313,N,00236.28994,W,1,08,1.15,71.4,M,48.6,M,,*77

$GPGSA,A,3,30,20,05,13,07,14,11,15,,,,,1.84,1.15,1.43*0C

$GPGSV,3,1,12,05,64,284,36,07,42,059,28,09,07,090,,11,18,209,44*76

$GPGSV,3,2,12,13,46,269,37,14,19,142,40,15,13,278,28,18,13,328,22*7F

$GPGSV,3,3,12,20,64,195,36,22,04,157,30,27,01,028,,30,71,105,40*7D

$GPGLL,5128.77313,N,00236.28994,W,092054.00,A,A*77

$GPRMC,092055.00,A,5128.77312,N,00236.28993,W,0.010,,251124,,,A*69

$GPVTG,,T,,M,0.010,N,0.019,K,A*2A

$GPGGA,092055.00,5128.77312,N,00236.28993,W,1,08,1.15,71.4,M,48.6,M,,*70

$GPGSA,A,3,30,20,05,13,07,14,11,15,,,,,1.84,1.15,1.43*0C

$GPGSV,3,1,12,05,64,284,36,07,42,059,28,09,07,090,,11,18,209,44*76

$GPGSV,3,2,12,13,46,269,37,14,19,142,40,15,13,278,28,18,13,328,22*7F

$GPGSV,3,3,12,20,64,195,36,22,04,157,30,27,01,028,,30,71,105,41*7C

$GPGLL,5128.77312,N,00236.28993,W,092055.00,A,A*70

$GPTXT,01,01,01,NMEA unknown msg*58

$GPRMC,092056.00,A,5128.77312,N,00236.28991,W,0.024,,251124,,,A*6F

$GPVTG,,T,,M,0.024,N,0.045,K,A*24

$GPGGA,092056.00,5128.77312,N,00236.28991,W,1,08,1.15,71.4,M,48.6,M,,*71

$GPGSA,A,3,30,20,05,13,07,14,11,15,,,,,1.84,1.15,1.43*0C

$GPGSV,3,1,12,05,64,284,36,07,42,059,28,09,07,090,,11,18,209,44*76

$GPGSV,3,2,12,13,46,269,37,14,19,142,39,15,13,278,29,18,13,328,21*73

$GPGSV,3,3,12,20,64,195,35,22,04,157,30,27,01,028,,30,71,105,40*7E

$GPGLL,5128.77312,N,00236.28991,W,092056.00,A,A*71

$GPTXT,01,01,01,NMEA unknown msg*58

$GPRMC,092057.00,A,5128.77313,N,00236.28986,W,0.051,,251124,,,A*6B

$GPVTG,,T,,M,0.051,N,0.095,K,A*2B

$GPGGA,092057.00,5128.77313,N,00236.28986,W,1,08,1.15,71.3,M,48.6,M,,*70

$GPGSA,A,3,30,20,05,13,07,14,11,15,,,,,1.84,1.15,1.43*0C

$GPGSV,3,1,12,05,64,284,36,07,42,059,29,09,07,090,,11,18,209,44*77

$GPGSV,3,2,12,13,46,269,38,14,19,142,39,15,13,278,28,18,13,328,22*7E

$GPGSV,3,3,12,20,64,195,35,22,04,157,30,27,01,028,,30,71,105,41*7F

$GPGLL,5128.77313,N,00236.28986,W,092057.00,A,A*77

$GPTXT,01,01,01,NMEA unknown msg*58

$GPRMC,092058.00,A,5128.77313,N,00236.28981,W,0.033,,251124,,,A*67

$GPVTG,,T,,M,0.033,N,0.062,K,A*27

$GPGGA,092058.00,5128.77313,N,00236.28981,W,1,08,1.15,71.3,M,48.6,M,,*78

$GPGSA,A,3,30,20,05,13,07,14,11,15,,,,,1.84,1.15,1.43*0C

$GPGSV,3,1,12,05,64,284,36,07,42,059,29,09,07,090,,11,18,209,44*77

$GPGSV,3,2,12,13,46,269,38,14,19,142,39,15,13,278,28,18,13,328,23*7F

$GPGSV,3,3,12,20,64,195,35,22,04,157,30,27,01,028,,30,71,105,41*7F

$GPGLL,5128.77313,N,00236.28981,W,092058.00,A,A*7F

$GPRMC,092059.00,A,5128.77307,N,00236.28978,W,0.075,,251124,,,A*67

$GPVTG,,T,,M,0.075,N,0.138,K,A*2B

$GPGGA,092059.00,5128.77307,N,00236.28978,W,1,08,1.15,71.4,M,48.6,M,,*7D

$GPGSA,A,3,30,20,05,13,07,14,11,15,,,,,1.84,1.15,1.43*0C

$GPGSV,3,1,12,05,64,284,36,07,42,059,29,09,07,090,,11,18,209,44*77

$GPGSV,3,2,12,13,46,269,37,14,19,142,39,15,13,278,29,18,13,328,22*70

$GPGSV,3,3,12,20,64,195,34,22,04,157,30,27,01,028,,30,71,105,41*7E

$GPGLL,5128.77307,N,00236.28978,W,092059.00,A,A*7D

$GPRMC,092100.00,A,5128.77301,N,00236.28974,W,0.036,,251124,,,A*67

$GPVTG,,T,,M,0.036,N,0.067,K,A*27

$GPGGA,092100.00,5128.77301,N,00236.28974,W,1,08,1.15,71.5,M,48.6,M,,*7B

$GPGSA,A,3,30,20,05,13,07,14,11,15,,,,,1.84,1.15,1.43*0C

$GPGSV,3,1,12,05,64,284,36,07,42,059,30,09,07,090,,11,18,209,44*7F

$GPGSV,3,2,12,13,46,269,38,14,19,142,39,15,13,278,29,18,13,328,22*7F

$GPGSV,3,3,12,20,64,195,34,22,04,157,30,27,01,028,,30,71,105,41*7E

$GPGLL,5128.77301,N,00236.28974,W,092100.00,A,A*7A

$GPRMC,092101.00,A,5128.77294,N,00236.28974,W,0.028,,251124,,,A*64

$GPVTG,,T,,M,0.028,N,0.051,K,A*2D

$GPGGA,092101.00,5128.77294,N,00236.28974,W,1,08,1.15,71.6,M,48.6,M,,*74

$GPGSA,A,3,30,20,05,13,07,14,11,15,,,,,1.84,1.15,1.43*0C

$GPGSV,3,1,12,05,64,284,36,07,42,059,29,09,07,090,,11,18,209,44*77

$GPGSV,3,2,12,13,46,269,38,14,19,142,39,15,13,278,28,18,13,328,22*7E

$GPGSV,3,3,12,20,64,195,34,22,04,157,30,27,01,028,,30,71,105,41*7E

$GPGLL,5128.77294,N,00236.28974,W,092101.00,A,A*76

$GPRMC,092102.00,A,5128.77289,N,00236.28972,W,0.030,,251124,,,A*64

$GPVTG,,T,,M,0.030,N,0.055,K,A*20

$GPGGA,092102.00,5128.77289,N,00236.28972,W,1,08,1.15,71.7,M,48.6,M,,*7C

$GPGSA,A,3,30,20,05,13,07,14,11,15,,,,,1.84,1.15,1.43*0C

$GPGSV,3,1,12,05,64,284,36,07,42,059,29,09,07,090,,11,18,209,44*77

$GPGSV,3,2,12,13,46,269,37,14,19,142,39,15,13,278,29,18,13,328,23*71

$GPGSV,3,3,12,20,64,195,33,22,04,157,30,27,01,028,,30,71,105,41*79

$GPGLL,5128.77289,N,00236.28972,W,092102.00,A,A*7F

$GPTXT,01,01,01,NMEA unknown msg*58

$GPRMC,092103.00,A,5128.77282,N,00236.28973,W,0.007,,251124,,,A*6B

$GPVTG,,T,,M,0.007,N,0.013,K,A*26

$GPGGA,092103.00,5128.77282,N,00236.28973,W,1,08,1.15,71.8,M,48.6,M,,*78

$GPGSA,A,3,30,20,05,13,07,14,11,15,,,,,1.84,1.15,1.43*0C

$GPGSV,3,1,12,05,64,284,37,07,42,059,29,09,07,090,,11,18,209,44*76

$GPGSV,3,2,12,13,46,269,37,14,19,142,39,15,13,278,29,18,13,328,23*71

$GPGSV,3,3,12,20,64,195,33,22,04,157,30,27,01,028,,30,71,105,41*79

$GPGLL,5128.77282,N,00236.28973,W,092103.00,A,A*74

$GPRMC,092104.00,A,5128.77274,N,00236.28974,W,0.034,,251124,,,A*62

$GPVTG,,T,,M,0.034,N,0.062,K,A*20

$GPGGA,092104.00,5128.77274,N,00236.28974,W,1,08,1.15,71.9,M,48.6,M,,*70

$GPGSA,A,3,30,20,05,13,07,14,11,15,,,,,1.84,1.15,1.43*0C

$GPGSV,3,1,12,05,64,284,37,07,42,059,30,09,07,090,,11,18,209,44*7E

$GPGSV,3,2,12,13,46,269,37,14,19,142,39,15,13,278,29,18,13,328,23*71

$GPGSV,3,3,12,20,64,195,33,22,04,157,30,27,01,028,,30,71,105,41*79

$GPGLL,5128.77274,N,00236.28974,W,092104.00,A,A*7D

$GPRMC,092105.00,A,5128.77266,N,00236.28976,W,0.027,,251124,,,A*60

$GPVTG,,T,,M,0.027,N,0.050,K,A*23

$GPGGA,092105.00,5128.77266,N,00236.28976,W,1,08,1.15,72.0,M,48.6,M,,*7A

$GPGSA,A,3,30,20,05,13,07,14,11,15,,,,,1.84,1.15,1.43*0C

$GPGSV,3,1,12,05,64,284,37,07,42,059,29,09,07,090,,11,18,209,44*76

$GPGSV,3,2,12,13,46,269,37,14,19,142,39,15,13,278,29,18,13,328,23*71

$GPGSV,3,3,12,20,64,195,34,22,04,157,30,27,01,028,,30,71,105,41*7E

$GPGLL,5128.77266,N,00236.28976,W,092105.00,A,A*7D

$GPRMC,092106.00,A,5128.77261,N,00236.28976,W,0.079,,251124,,,A*6F

$GPVTG,,T,,M,0.079,N,0.146,K,A*2E

$GPGGA,092106.00,5128.77261,N,00236.28976,W,1,08,1.15,72.0,M,48.6,M,,*7E

$GPGSA,A,3,30,20,05,13,07,14,11,15,,,,,1.84,1.15,1.43*0C

$GPGSV,3,1,12,05,64,284,37,07,42,059,29,09,07,090,,11,18,209,44*76

$GPGSV,3,2,12,13,46,269,37,14,19,142,39,15,13,278,29,18,13,328,23*71

$GPGSV,3,3,12,20,64,195,34,22,04,157,30,27,01,028,,30,71,105,41*7E

$GPGLL,5128.77261,N,00236.28976,W,092106.00,A,A*79

$GPRMC,092107.00,A,5128.77251,N,00236.28980,W,0.056,,251124,,,A*69

$GPVTG,,T,,M,0.056,N,0.103,K,A*22

$GPGGA,092107.00,5128.77251,N,00236.28980,W,1,08,1.15,72.1,M,48.6,M,,*74

$GPGSA,A,3,30,20,05,13,07,14,11,15,,,,,1.84,1.15,1.43*0C

$GPGSV,3,1,12,05,64,284,37,07,42,059,29,09,07,090,,11,18,209,44*76

$GPGSV,3,2,12,13,46,269,37,14,19,142,39,15,13,278,30,18,13,328,22*78

$GPGSV,3,3,12,20,64,195,34,22,04,157,30,27,01,028,,30,71,105,41*7E

$GPGLL,5128.77251,N,00236.28980,W,092107.00,A,A*72

$GPRMC,092108.00,A,5128.77240,N,00236.28984,W,0.075,,251124,,,A*63

$GPVTG,,T,,M,0.075,N,0.139,K,A*2A

$GPGGA,092108.00,5128.77240,N,00236.28984,W,1,08,1.15,72.2,M,48.6,M,,*7C

$GPGSA,A,3,30,20,05,13,07,14,11,15,,,,,1.84,1.15,1.43*0C

$GPGSV,3,1,12,05,64,284,37,07,42,059,29,09,07,090,,11,18,209,44*76

$GPGSV,3,2,12,13,46,269,37,14,19,142,39,15,13,278,29,18,13,328,22*70

$GPGSV,3,3,12,20,64,195,34,22,04,157,30,27,01,028,,30,71,105,42*7D

$GPGLL,5128.77240,N,00236.28984,W,092108.00,A,A*79

$GPTXT,01,01,01,NMEA unknown msg*58

$GPRMC,092109.00,A,5128.77234,N,00236.28986,W,0.055,,251124,,,A*61

$GPVTG,,T,,M,0.055,N,0.102,K,A*20

$GPGGA,092109.00,5128.77234,N,00236.28986,W,1,08,1.15,72.3,M,48.6,M,,*7D

$GPGSA,A,3,30,20,05,13,07,14,11,15,,,,,1.84,1.15,1.43*0C

$GPGSV,3,1,12,05,64,284,37,07,42,059,29,09,07,090,,11,18,209,44*76

$GPGSV,3,2,12,13,46,269,38,14,19,142,39,15,13,278,30,18,13,328,22*77

$GPGSV,3,3,12,20,64,195,34,22,04,157,30,27,01,028,,30,71,105,41*7E

$GPGLL,5128.77234,N,00236.28986,W,092109.00,A,A*79

$GPTXT,01,01,01,NMEA unknown msg*58

$GPRMC,092110.00,A,5128.77228,N,00236.28987,W,0.019,,251124,,,A*6D

$GPVTG,,T,,M,0.019,N,0.036,K,A*2E

$GPGGA,092110.00,5128.77228,N,00236.28987,W,1,08,1.15,72.3,M,48.6,M,,*79

$GPGSA,A,3,30,20,05,13,07,14,11,15,,,,,1.84,1.15,1.43*0C

$GPGSV,3,1,12,05,64,284,37,07,42,059,29,09,07,090,,11,18,209,44*76

$GPGSV,3,2,12,13,46,269,38,14,19,142,39,15,13,278,30,18,13,328,22*77

$GPGSV,3,3,12,20,64,195,35,22,04,157,30,27,01,028,,30,71,105,42*7C

$GPGLL,5128.77228,N,00236.28987,W,092110.00,A,A*7D

$GPRMC,092111.00,A,5128.77225,N,00236.28986,W,0.015,,251124,,,A*6C

$GPVTG,,T,,M,0.015,N,0.028,K,A*2D

$GPGGA,092111.00,5128.77225,N,00236.28986,W,1,08,1.77,72.3,M,48.6,M,,*70

$GPGSA,A,3,30,20,05,13,07,14,11,15,,,,,2.42,1.77,1.64*04

$GPTXT,01,01,01,NMEA unknown msg*58

$GPGSV,3,1,12,05,64,284,37,07,42,059,29,09,07,090,,11,18,209,44*76

$GPGSV,3,2,12,13,46,269,38,14,19,142,39,15,13,278,30,18,13,328,21*74

$GPGSV,3,3,12,20,64,195,35,22,04,157,31,27,01,028,,30,71,105,42*7D

$GPGLL,5128.77225,N,00236.28986,W,092111.00,A,A*70

$GPRMC,092112.00,A,5128.77219,N,00236.28987,W,0.008,,251124,,,A*6D

$GPVTG,,T,,M,0.008,N,0.016,K,A*2C

$GPGGA,092112.00,5128.77219,N,00236.28987,W,1,08,1.15,72.4,M,48.6,M,,*7E

$GPGSA,A,3,30,20,05,13,07,14,11,15,,,,,1.84,1.15,1.43*0C

$GPGSV,3,1,12,05,64,284,37,07,42,059,29,09,07,090,16,11,18,209,44*71

$GPGSV,3,2,12,13,46,269,38,14,19,142,39,15,13,278,30,18,13,328,21*74

$GPGSV,3,3,12,20,64,195,35,22,04,157,31,27,01,028,,30,71,105,42*7D

$GPGLL,5128.77219,N,00236.28987,W,092112.00,A,A*7D

$GPRMC,092113.00,A,5128.77211,N,00236.28988,W,0.060,,251124,,,A*65

$GPVTG,,T,,M,0.060,N,0.111,K,A*24

$GPGGA,092113.00,5128.77211,N,00236.28988,W,1,08,1.15,72.5,M,48.6,M,,*79

$GPGSA,A,3,30,20,05,13,07,14,11,15,,,,,1.84,1.15,1.43*0C

$GPTXT,01,01,01,NMEA unknown msg*58

$GPGSV,3,1,12,05,64,284,37,07,42,059,29,09,07,090,16,11,18,209,44*71

$GPGSV,3,2,12,13,47,269,38,14,19,142,39,15,13,278,30,18,13,328,21*75

$GPGSV,3,3,12,20,64,195,36,22,04,157,31,27,01,028,,30,71,105,42*7E

$GPGLL,5128.77211,N,00236.28988,W,092113.00,A,A*7B

$GPRMC,092114.00,A,5128.77204,N,00236.28989,W,0.033,,251124,,,A*61

$GPVTG,,T,,M,0.033,N,0.062,K,A*27

$GPGGA,092114.00,5128.77204,N,00236.28989,W,1,08,1.15,72.5,M,48.6,M,,*7B

$GPGSA,A,3,30,20,05,13,07,14,11,15,,,,,1.84,1.15,1.43*0C

$GPGSV,3,1,12,05,64,284,37,07,42,059,29,09,07,090,15,11,18,209,44*72

$GPGSV,3,2,12,13,47,269,38,14,19,142,39,15,13,278,30,18,13,328,21*75

$GPGSV,3,3,12,20,64,195,36,22,04,157,31,27,01,028,,30,71,105,42*7E

$GPGLL,5128.77204,N,00236.28989,W,092114.00,A,A*79

$GPTXT,01,01,01,NMEA unknown msg*58

$GPRMC,092115.00,A,5128.77199,N,00236.28989,W,0.081,,251124,,,A*6E

$GPVTG,,T,,M,0.081,N,0.149,K,A*26

$GPGGA,092115.00,5128.77199,N,00236.28989,W,1,08,1.15,72.5,M,48.6,M,,*7D

$GPGSA,A,3,30,20,05,13,07,14,11,15,,,,,1.84,1.15,1.43*0C

$GPGSV,3,1,12,05,64,284,37,07,42,059,29,09,07,090,16,11,18,209,44*71

$GPGSV,3,2,12,13,47,269,38,14,19,142,39,15,14,278,30,18,13,328,22*71

$GPGSV,3,3,12,20,64,195,36,22,04,157,30,27,01,028,,30,71,105,42*7F

$GPGLL,5128.77199,N,00236.28989,W,092115.00,A,A*7F

$GPRMC,092116.00,A,5128.77191,N,00236.28988,W,0.026,,251124,,,A*69

$GPVTG,,T,,M,0.026,N,0.048,K,A*2B

$GPGGA,092116.00,5128.77191,N,00236.28988,W,1,08,1.15,72.6,M,48.6,M,,*74

$GPGSA,A,3,30,20,05,13,07,14,11,15,,,,,1.84,1.15,1.43*0C

$GPGSV,3,1,12,05,64,284,37,07,42,059,29,09,07,090,16,11,18,209,44*71

$GPGSV,3,2,12,13,47,269,39,14,19,142,39,15,14,278,31,18,13,328,22*71

$GPGSV,3,3,12,20,64,195,36,22,04,157,30,27,01,028,,30,71,105,42*7F

$GPGLL,5128.77191,N,00236.28988,W,092116.00,A,A*75

$GPRMC,092117.00,A,5128.77186,N,00236.28987,W,0.080,,251124,,,A*6D

$GPVTG,,T,,M,0.080,N,0.148,K,A*26

$GPGGA,092117.00,5128.77186,N,00236.28987,W,1,08,1.15,72.7,M,48.6,M,,*7D

$GPGSA,A,3,30,20,05,13,07,14,11,15,,,,,1.84,1.15,1.43*0C

$GPGSV,3,1,12,05,64,284,37,07,42,059,29,09,07,090,17,11,18,209,44*70

$GPGSV,3,2,12,13,47,269,39,14,19,142,39,15,14,278,30,18,13,328,22*70

$GPGSV,3,3,12,20,64,195,36,22,04,157,30,27,01,028,,30,71,105,42*7F

$GPGLL,5128.77186,N,00236.28987,W,092117.00,A,A*7D

$GPRMC,092118.00,A,5128.77181,N,00236.28986,W,0.044,,251124,,,A*6C

$GPVTG,,T,,M,0.044,N,0.082,K,A*29

$GPGGA,092118.00,5128.77181,N,00236.28986,W,1,08,1.15,72.7,M,48.6,M,,*74

$GPGSA,A,3,30,20,05,13,07,14,11,15,,,,,1.84,1.15,1.43*0C

$GPGSV,3,1,12,05,64,284,37,07,42,059,29,09,07,090,18,11,18,209,44*7F

$GPGSV,3,2,12,13,47,269,39,14,19,142,39,15,14,278,31,18,13,328,22*71

$GPGSV,3,3,12,20,64,195,36,22,04,157,31,27,01,028,,30,71,105,42*7E

$GPGLL,5128.77181,N,00236.28986,W,092118.00,A,A*74

$GPRMC,092119.00,A,5128.77177,N,00236.28985,W,0.011,,251124,,,A*67

$GPVTG,,T,,M,0.011,N,0.020,K,A*21

$GPGGA,092119.00,5128.77177,N,00236.28985,W,1,08,1.15,72.7,M,48.6,M,,*7F

$GPGSA,A,3,30,20,05,13,07,14,11,15,,,,,1.84,1.15,1.43*0C

$GPGSV,3,1,12,05,64,284,37,07,42,059,29,09,07,090,18,11,18,209,44*7F

$GPGSV,3,2,12,13,47,269,39,14,19,142,39,15,14,278,31,18,13,328,22*71

$GPGSV,3,3,12,20,63,194,36,22,04,157,30,27,01,028,,30,71,105,42*79

$GPGLL,5128.77177,N,00236.28985,W,092119.00,A,A*7F

$GPTXT,01,01,01,NMEA unknown msg*58

$GPTXT,01,01,01,NMEA unknown msg*58

$GPRMC,092120.00,A,5128.77174,N,00236.28983,W,0.062,,251124,,,A*6C

$GPVTG,,T,,M,0.062,N,0.115,K,A*22

$GPGGA,092120.00,5128.77174,N,00236.28983,W,1,08,1.15,72.7,M,48.6,M,,*70

$GPGSA,A,3,30,20,05,13,07,14,11,15,,,,,1.84,1.15,1.43*0C

$GPGSV,3,1,12,05,64,284,37,07,42,059,30,09,07,090,19,11,18,209,44*76

$GPGSV,3,2,12,13,47,269,39,14,19,142,40,15,14,278,30,18,13,328,22*7E

$GPGSV,3,3,12,20,63,194,37,22,04,157,30,27,01,028,,30,71,105,42*78

$GPGLL,5128.77174,N,00236.28983,W,092120.00,A,A*70

$GPTXT,01,01,01,NMEA unknown msg*58

$GPRMC,092121.00,A,5128.77172,N,00236.28984,W,0.059,,251124,,,A*64

$GPVTG,,T,,M,0.059,N,0.109,K,A*27

$GPGGA,092121.00,5128.77172,N,00236.28984,W,1,08,1.15,72.7,M,48.6,M,,*70

$GPGSA,A,3,30,20,05,13,07,14,11,15,,,,,1.84,1.15,1.43*0C

$GPGSV,3,1,12,05,64,284,37,07,42,059,30,09,07,090,19,11,18,209,44*76

$GPGSV,3,2,12,13,47,269,39,14,19,142,39,15,14,278,31,18,13,328,22*71

$GPGSV,3,3,12,20,63,194,37,22,05,157,30,27,01,028,,30,71,105,42*79

$GPGLL,5128.77172,N,00236.28984,W,092121.00,A,A*70

$GPRMC,092122.00,A,5128.77170,N,00236.28982,W,0.016,,251124,,,A*68

$GPVTG,,T,,M,0.016,N,0.029,K,A*2F

$GPGGA,092122.00,5128.77170,N,00236.28982,W,1,08,1.15,72.7,M,48.6,M,,*77

$GPGSA,A,3,30,20,05,13,07,14,11,15,,,,,1.84,1.15,1.43*0C

$GPGSV,3,1,12,05,64,284,37,07,42,059,29,09,07,090,19,11,18,209,44*7E

$GPGSV,3,2,12,13,47,269,39,14,19,142,40,15,14,278,30,18,13,328,23*7F

$GPGSV,3,3,12,20,63,194,37,22,05,157,31,27,01,028,,30,71,105,41*7B

$GPGLL,5128.77170,N,00236.28982,W,092122.00,A,A*77

$GPRMC,092123.00,A,5128.77165,N,00236.28981,W,0.018,,251124,,,A*60

$GPVTG,,T,,M,0.018,N,0.033,K,A*2A

$GPGGA,092123.00,5128.77165,N,00236.28981,W,1,08,1.15,72.7,M,48.6,M,,*71

$GPGSA,A,3,30,20,05,13,07,14,11,15,,,,,1.84,1.15,1.43*0C

$GPGSV,3,1,12,05,64,284,37,07,42,059,29,09,07,090,19,11,18,209,44*7E

$GPGSV,3,2,12,13,47,269,39,14,19,142,39,15,14,278,30,18,13,328,22*70

$GPGSV,3,3,12,20,63,194,37,22,05,157,30,27,01,028,,30,71,105,41*7A

$GPGLL,5128.77165,N,00236.28981,W,092123.00,A,A*71

$GPRMC,092124.00,A,5128.77162,N,00236.28981,W,0.034,,251124,,,A*6E

$GPVTG,,T,,M,0.034,N,0.064,K,A*26

$GPGGA,092124.00,5128.77162,N,00236.28981,W,1,08,1.15,72.7,M,48.6,M,,*71

$GPGSA,A,3,30,20,05,13,07,14,11,15,,,,,1.84,1.15,1.43*0C

$GPGSV,3,1,12,05,64,284,37,07,42,059,29,09,07,090,18,11,18,209,44*7F

$GPGSV,3,2,12,13,47,269,39,14,19,142,39,15,14,278,30,18,13,328,22*70

$GPGSV,3,3,12,20,63,194,36,22,05,157,30,27,01,028,,30,71,105,41*7B

$GPGLL,5128.77162,N,00236.28981,W,092124.00,A,A*71

$GPRMC,092125.00,A,5128.77159,N,00236.28981,W,0.017,,251124,,,A*66

$GPVTG,,T,,M,0.017,N,0.031,K,A*27

$GPGGA,092125.00,5128.77159,N,00236.28981,W,1,08,1.15,72.8,M,48.6,M,,*77

$GPGSA,A,3,30,20,05,13,07,14,11,15,,,,,1.84,1.15,1.43*0C

$GPGSV,3,1,12,05,64,284,36,07,42,059,30,09,07,090,17,11,18,209,44*79

$GPGSV,3,2,12,13,47,269,39,14,19,142,39,15,14,278,30,18,13,328,22*70

$GPGSV,3,3,12,20,63,194,37,22,05,157,30,27,01,028,,30,71,105,41*7A

$GPGLL,5128.77159,N,00236.28981,W,092125.00,A,A*78

$GPRMC,092126.00,A,5128.77160,N,00236.28980,W,0.085,,251124,,,A*65

$GPVTG,,T,,M,0.085,N,0.157,K,A*2D

$GPGGA,092126.00,5128.77160,N,00236.28980,W,1,08,1.15,72.7,M,48.6,M,,*70

$GPGSA,A,3,30,20,05,13,07,14,11,15,,,,,1.84,1.15,1.43*0C

$GPGSV,3,1,12,05,64,284,36,07,42,059,30,09,07,090,16,11,18,209,44*78

$GPGSV,3,2,12,13,47,269,39,14,19,142,40,15,14,278,30,18,13,328,22*7E

$GPGSV,3,3,12,20,63,194,37,22,05,157,30,27,01,028,,30,71,105,41*7A

$GPGLL,5128.77160,N,00236.28980,W,092126.00,A,A*70

$GPRMC,092127.00,A,5128.77160,N,00236.28979,W,0.065,,251124,,,A*6C

$GPVTG,,T,,M,0.065,N,0.121,K,A*22

$GPGGA,092127.00,5128.77160,N,00236.28979,W,1,08,1.15,72.7,M,48.6,M,,*77

$GPGSA,A,3,30,20,05,13,07,14,11,15,,,,,1.84,1.15,1.43*0C

$GPGSV,3,1,12,05,64,284,36,07,42,059,30,09,07,090,19,11,18,209,44*77

$GPGSV,3,2,12,13,47,269,38,14,19,142,39,15,14,278,30,18,13,328,20*73

$GPGSV,3,3,12,20,63,194,37,22,05,157,30,27,01,028,,30,71,105,41*7A

$GPGLL,5128.77160,N,00236.28979,W,092127.00,A,A*77

$GPRMC,092128.00,A,5128.77162,N,00236.28978,W,0.015,,251124,,,A*67

$GPVTG,,T,,M,0.015,N,0.028,K,A*2D

$GPGGA,092128.00,5128.77162,N,00236.28978,W,1,08,1.15,72.7,M,48.6,M,,*7B

$GPGSA,A,3,30,20,05,13,07,14,11,15,,,,,1.84,1.15,1.43*0C

$GPGSV,3,1,12,05,64,284,36,07,42,059,30,09,07,090,17,11,18,209,44*79

$GPGSV,3,2,12,13,47,269,38,14,19,142,40,15,14,278,30,18,13,328,21*7C

$GPGSV,3,3,12,20,63,194,37,22,05,157,30,27,01,028,,30,71,105,41*7A

$GPGLL,5128.77162,N,00236.28978,W,092128.00,A,A*7B

$GPTXT,01,01,01,NMEA unknown msg*58

$GPRMC,092129.00,A,5128.77159,N,00236.28978,W,0.047,,251124,,,A*69

$GPVTG,,T,,M,0.047,N,0.088,K,A*20

$GPGGA,092129.00,5128.77159,N,00236.28978,W,1,08,1.15,72.8,M,48.6,M,,*7D

$GPGSA,A,3,30,20,05,13,07,14,11,15,,,,,1.84,1.15,1.43*0C

$GPGSV,3,1,12,05,64,284,36,07,42,059,30,09,07,090,17,11,18,209,44*79

$GPGSV,3,2,12,13,47,269,38,14,19,142,39,15,14,278,30,18,13,328,21*72

$GPGSV,3,3,12,20,63,194,37,22,05,157,30,27,01,028,,30,71,104,41*7B

$GPGLL,5128.77159,N,00236.28978,W,092129.00,A,A*72

$GPRMC,092130.00,A,5128.77161,N,00236.28978,W,0.037,,251124,,,A*6D

$GPVTG,,T,,M,0.037,N,0.068,K,A*29

$GPGGA,092130.00,5128.77161,N,00236.28978,W,1,08,1.15,72.8,M,48.6,M,,*7E

$GPGSA,A,3,30,20,05,13,07,14,11,15,,,,,1.84,1.15,1.43*0C

$GPGSV,3,1,12,05,64,284,36,07,42,059,30,09,07,090,17,11,18,209,44*79

$GPGSV,3,2,12,13,47,269,38,14,19,142,39,15,14,278,30,18,13,328,21*72

$GPGSV,3,3,12,20,63,194,37,22,05,157,30,27,01,028,,30,71,104,41*7B

$GPGLL,5128.77161,N,00236.28978,W,092130.00,A,A*71

$GPRMC,092131.00,A,5128.77160,N,00236.28978,W,0.038,,251124,,,A*62

$GPVTG,,T,,M,0.038,N,0.071,K,A*2E

$GPGGA,092131.00,5128.77160,N,00236.28978,W,1,08,1.15,72.8,M,48.6,M,,*7E

$GPGSA,A,3,30,20,05,13,07,14,11,15,,,,,1.84,1.15,1.43*0C

$GPGSV,3,1,12,05,64,284,36,07,42,059,29,09,07,090,16,11,18,209,45*71

$GPGSV,3,2,12,13,47,269,38,14,19,142,40,15,14,278,30,18,13,328,21*7C

$GPGSV,3,3,12,20,63,194,37,22,05,157,30,27,01,028,,30,71,104,41*7B

$GPGLL,5128.77160,N,00236.28978,W,092131.00,A,A*71

$GPRMC,092132.00,A,5128.77163,N,00236.28976,W,0.022,,251124,,,A*67

$GPVTG,,T,,M,0.022,N,0.042,K,A*25

$GPGGA,092132.00,5128.77163,N,00236.28976,W,1,08,1.15,72.7,M,48.6,M,,*7F

$GPGSA,A,3,30,20,05,13,07,14,11,15,,,,,1.84,1.15,1.43*0C

$GPGSV,3,1,12,05,64,284,36,07,42,059,29,09,07,090,16,11,18,209,45*71

$GPGSV,3,2,12,13,47,269,38,14,19,142,40,15,14,278,30,18,13,328,20*7D

$GPGSV,3,3,12,20,63,194,38,22,05,157,30,27,01,028,,30,71,104,41*74

$GPGLL,5128.77163,N,00236.28976,W,092132.00,A,A*7F

$GPRMC,092133.00,A,5128.77165,N,00236.28974,W,0.033,,251124,,,A*62

$GPVTG,,T,,M,0.033,N,0.060,K,A*25

$GPGGA,092133.00,5128.77165,N,00236.28974,W,1,08,1.15,72.7,M,48.6,M,,*7A

$GPGSA,A,3,30,20,05,13,07,14,11,15,,,,,1.84,1.15,1.43*0C

$GPGSV,3,1,12,05,64,284,36,07,42,059,29,09,07,090,15,11,18,209,45*72

$GPGSV,3,2,12,13,47,269,38,14,19,142,39,15,14,278,29,18,13,328,20*7B

$GPGSV,3,3,12,20,63,194,37,22,05,157,30,27,01,028,,30,71,104,40*7A

$GPGLL,5128.77165,N,00236.28974,W,092133.00,A,A*7A

$GPRMC,092134.00,A,5128.77164,N,00236.28973,W,0.024,,251124,,,A*65

$GPVTG,,T,,M,0.024,N,0.044,K,A*25

$GPGGA,092134.00,5128.77164,N,00236.28973,W,1,08,1.15,72.8,M,48.6,M,,*74

$GPGSA,A,3,30,20,05,13,07,14,11,15,,,,,1.84,1.15,1.43*0C

$GPGSV,3,1,12,05,64,284,36,07,42,059,29,09,07,090,15,11,18,209,44*73

$GPGSV,3,2,12,13,47,269,38,14,19,142,40,15,14,278,30,18,13,328,20*7D

$GPGSV,3,3,12,20,63,194,38,22,05,157,29,27,01,028,,30,71,104,40*7D

$GPGLL,5128.77164,N,00236.28973,W,092134.00,A,A*7B

$GPRMC,092135.00,A,5128.77169,N,00236.28968,W,0.072,,251124,,,A*60

$GPVTG,,T,,M,0.072,N,0.133,K,A*27

$GPGGA,092135.00,5128.77169,N,00236.28968,W,1,08,1.15,72.7,M,48.6,M,,*7D

$GPGSA,A,3,30,20,05,13,07,14,11,15,,,,,1.84,1.15,1.43*0C

$GPGSV,3,1,12,05,64,284,36,07,42,059,29,09,07,090,15,11,18,209,45*72

$GPGSV,3,2,12,13,47,269,39,14,19,142,39,15,14,278,30,18,13,328,20*72

$GPGSV,3,3,12,20,63,194,38,22,05,157,29,27,01,028,,30,71,104,40*7D

$GPGLL,5128.77169,N,00236.28968,W,092135.00,A,A*7D

$GPTXT,01,01,01,NMEA unknown msg*58

$GPRMC,092136.00,A,5128.77171,N,00236.28964,W,0.063,,251124,,,A*66

$GPVTG,,T,,M,0.063,N,0.117,K,A*21

$GPGGA,092136.00,5128.77171,N,00236.28964,W,1,08,1.15,72.6,M,48.6,M,,*7A

$GPGSA,A,3,30,20,05,13,07,14,11,15,,,,,1.84,1.15,1.43*0C

$GPGSV,3,1,12,05,64,284,36,07,42,059,29,09,07,090,15,11,18,209,44*73

$GPGSV,3,2,12,13,47,269,39,14,19,142,40,15,14,278,29,18,13,328,19*7E

$GPGSV,3,3,12,20,63,194,38,22,05,157,29,27,01,028,,30,71,104,40*7D

$GPGLL,5128.77171,N,00236.28964,W,092136.00,A,A*7B

$GPRMC,092137.00,A,5128.77176,N,00236.28958,W,0.026,,251124,,,A*6E

$GPVTG,,T,,M,0.026,N,0.048,K,A*2B

$GPGGA,092137.00,5128.77176,N,00236.28958,W,1,08,1.15,72.5,M,48.6,M,,*70

$GPGSA,A,3,30,20,05,13,07,14,11,15,,,,,1.84,1.15,1.43*0C

$GPGSV,3,1,12,05,64,284,36,07,42,059,29,09,07,090,15,11,18,209,44*73

$GPGSV,3,2,12,13,47,269,39,14,19,142,40,15,14,278,29,18,13,328,20*74

$GPGSV,3,3,12,20,63,194,38,22,05,157,29,27,01,028,,30,71,104,40*7D

$GPGLL,5128.77176,N,00236.28958,W,092137.00,A,A*72

$GPRMC,092138.00,A,5128.77180,N,00236.28953,W,0.009,,251124,,,A*6E

$GPVTG,,T,,M,0.009,N,0.017,K,A*2C

$GPGGA,092138.00,5128.77180,N,00236.28953,W,1,08,1.15,72.4,M,48.6,M,,*7C

$GPGSA,A,3,30,20,05,13,07,14,11,15,,,,,1.84,1.15,1.43*0C

$GPGSV,3,1,12,05,64,284,36,07,42,059,29,09,07,090,,11,18,209,44*77

$GPGSV,3,2,12,13,47,269,39,14,19,142,40,15,14,278,29,18,13,328,20*74

$GPGSV,3,3,12,20,63,194,38,22,05,157,29,27,01,028,,30,71,104,40*7D

$GPGLL,5128.77180,N,00236.28953,W,092138.00,A,A*7F

$GPRMC,092139.00,A,5128.77184,N,00236.28947,W,0.047,,251124,,,A*64

$GPVTG,,T,,M,0.047,N,0.087,K,A*2F

$GPGGA,092139.00,5128.77184,N,00236.28947,W,1,08,1.15,72.4,M,48.6,M,,*7C

$GPGSA,A,3,30,20,05,13,07,14,11,15,,,,,1.84,1.15,1.43*0C

$GPGSV,3,1,12,05,64,284,36,07,42,059,29,09,07,090,17,11,18,209,44*71

$GPGSV,3,2,12,13,47,269,38,14,19,142,40,15,14,278,29,18,13,328,20*75

$GPGSV,3,3,12,20,63,194,38,22,05,157,29,27,01,028,,30,71,104,40*7D

$GPGLL,5128.77184,N,00236.28947,W,092139.00,A,A*7F

$GPRMC,092140.00,A,5128.77188,N,00236.28941,W,0.076,,251124,,,A*62

$GPVTG,,T,,M,0.076,N,0.141,K,A*26

$GPGGA,092140.00,5128.77188,N,00236.28941,W,1,08,1.15,72.3,M,48.6,M,,*7F

$GPGSA,A,3,30,20,05,13,07,14,11,15,,,,,1.84,1.15,1.43*0C

$GPGSV,3,1,12,05,64,284,36,07,42,059,29,09,07,090,16,11,18,209,44*70

$GPGSV,3,2,12,13,47,269,39,14,19,142,40,15,14,278,29,18,13,328,20*74

$GPGSV,3,3,12,20,63,194,38,22,05,157,29,27,01,028,,30,71,104,40*7D

$GPGLL,5128.77188,N,00236.28941,W,092140.00,A,A*7B

$GPRMC,092141.00,A,5128.77193,N,00236.28933,W,0.071,,251124,,,A*6B

$GPVTG,,T,,M,0.071,N,0.131,K,A*26

$GPGGA,092141.00,5128.77193,N,00236.28933,W,1,08,1.15,72.2,M,48.6,M,,*70

$GPGSA,A,3,30,20,05,13,07,14,11,15,,,,,1.84,1.15,1.43*0C

$GPGSV,3,1,12,05,64,284,36,07,42,059,29,09,07,090,,11,18,209,44*77

$GPGSV,3,2,12,13,47,269,38,14,19,142,40,15,14,278,29,18,13,328,21*74

$GPGSV,3,3,12,20,63,194,38,22,05,157,29,27,01,028,,30,71,104,40*7D

$GPGLL,5128.77193,N,00236.28933,W,092141.00,A,A*75

$GPRMC,092142.00,A,5128.77198,N,00236.28926,W,0.015,,251124,,,A*65

$GPVTG,,T,,M,0.015,N,0.028,K,A*2D

$GPGGA,092142.00,5128.77198,N,00236.28926,W,1,08,1.15,72.1,M,48.6,M,,*7F

$GPGSA,A,3,30,20,05,13,07,14,11,15,,,,,1.84,1.15,1.43*0C

$GPGSV,3,1,12,05,64,284,36,07,42,059,29,09,07,090,,11,18,209,44*77

$GPGSV,3,2,12,13,47,269,39,14,19,142,40,15,14,278,28,18,13,328,21*74

$GPGSV,3,3,12,20,63,194,38,22,05,157,29,27,01,028,,30,71,104,40*7D

$GPTXT,01,01,01,NMEA unknown msg*58

$GPGLL,5128.77198,N,00236.28926,W,092142.00,A,A*79

$GPRMC,092143.00,A,5128.77204,N,00236.28920,W,0.041,,251124,,,A*65

$GPVTG,,T,,M,0.041,N,0.076,K,A*27

$GPGGA,092143.00,5128.77204,N,00236.28920,W,1,08,1.15,72.0,M,48.6,M,,*7F

$GPGSA,A,3,30,20,05,13,07,14,11,15,,,,,1.84,1.15,1.43*0C

$GPGSV,3,1,12,05,64,284,36,07,42,059,29,09,07,090,,11,18,209,44*77

$GPGSV,3,2,12,13,47,269,39,14,19,142,40,15,14,278,28,18,13,328,21*74

$GPGSV,3,3,12,20,63,194,38,22,05,157,29,27,01,028,,30,71,104,40*7D

$GPGLL,5128.77204,N,00236.28920,W,092143.00,A,A*78

$GPRMC,092144.00,A,5128.77209,N,00236.28914,W,0.008,,251124,,,A*65

$GPVTG,,T,,M,0.008,N,0.015,K,A*2F

$GPGGA,092144.00,5128.77209,N,00236.28914,W,1,08,1.15,71.9,M,48.6,M,,*78

$GPGSA,A,3,30,20,05,13,07,14,11,15,,,,,1.84,1.15,1.43*0C

$GPGSV,3,1,12,05,64,284,36,07,42,059,29,09,07,090,,11,18,209,44*77

$GPGSV,3,2,12,13,47,269,39,14,19,142,40,15,14,278,28,18,13,328,21*74

$GPGSV,3,3,12,20,63,194,38,22,05,157,29,27,01,028,,30,71,104,40*7D

$GPGLL,5128.77209,N,00236.28914,W,092144.00,A,A*75

$GPTXT,01,01,01,NMEA unknown msg*58

$GPTXT,01,01,01,NMEA unknown msg*58

$GPRMC,092145.00,A,5128.77213,N,00236.28909,W,0.031,,251124,,,A*69

$GPVTG,,T,,M,0.031,N,0.058,K,A*2C

$GPGGA,092145.00,5128.77213,N,00236.28909,W,1,08,1.15,71.8,M,48.6,M,,*7F

