$GPRMC,094712.00,A,5128.77016,N,00236.26013,W,2.763,359.19,251124,,,A*7B

$GPVTG,359.19,T,,M,2.763,N,5.117,K,A*38

$GPGGA,094712.00,5128.77016,N,00236.26013,W,1,09,1.01,62.6,M,48.6,M,,*7E

$GPGSA,A,3,05,30,13,20,07,14,15,22,11,,,,1.71,1.01,1.37*00

$GPGSV,3,1,12,05,69,255,46,07,31,057,32,08,02,048,,11,07,205,24*74

$GPGSV,3,2,12,13,58,278,45,14,29,135,42,15,24,283,32,18,19,319,33*77

$GPGSV,3,3,12,20,51,185,40,22,15,152,36,27,03,018,,30,65,078,45*72

$GPGLL,5128.77016,N,00236.26013,W,094712.00,A,A*7A

$GPTXT,01,01,02,u-blox ag - www.u-blox.com*50

$GPTXT,01,01,02,HW  UBX-G70xx   00070000 FF7FFFFFo*69

$GPTXT,01,01,02,ROM CORE 1.00 (59842) Jun 27 2012 17:43:52*59

$GPTXT,01,01,02,PROTVER 14.00*1E

$GPTXT,01,01,02,ANTSUPERV=AC SD PDoS SR*20

$GPTXT,01,01,02,ANTSTATUS=OK*3B

$GPTXT,01,01,02,LLC FFFFFFFF-FFFFFFFF-FFFFFFFF-FFFFFFFF-FFFFFFFD*2C

$GPRMC,094713.00,A,5128.77122,N,00236.26029,W,2.867,2.87,251124,,,A*74

$GPVTG,2.87,T,,M,2.867,N,5.309,K,A*34

$GPGGA,094713.00,5128.77122,N,00236.26029,W,1,09,1.01,60.9,M,48.6,M,,*7D

$GPGSA,A,3,05,30,13,20,07,14,15,22,11,,,,1.71,1.01,1.37*00

$GPGSV,3,1,12,05,69,255,47,07,31,057,40,08,02,048,,11,07,205,23*77

$GPGSV,3,2,12,13,58,278,47,14,29,135,44,15,24,283,47,18,19,319,38*7A

$GPGSV,3,3,12,20,51,185,37,22,15,152,39,27,03,018,,30,65,078,47*7F

$GPGLL,5128.77122,N,00236.26029,W,094713.00,A,A*74

$GPTXT,01,01,01,NMEA unknown msg*58

$GPRMC,094714.00,A,5128.77202,N,00236.26010,W,2.575,1.82,251124,,,A*70

$GPVTG,1.82,T,,M,2.575,N,4.770,K,A*37

$GPGGA,094714.00,5128.77202,N,00236.26010,W,1,09,1.01,61.3,M,48.6,M,,*7A

$GPGSA,A,3,05,30,13,20,07,14,15,22,11,,,,1.71,1.01,1.37*00

$GPGSV,3,1,12,05,69,255,47,07,31,057,42,08,02,048,,11,07,205,22*74

$GPGSV,3,2,12,13,58,278,45,14,29,135,42,15,24,283,36,18,19,319,42*75

$GPGSV,3,3,12,20,51,185,37,22,15,152,42,27,03,018,,30,65,078,45*71

$GPGLL,5128.77202,N,00236.26010,W,094714.00,A,A*78

$GPRMC,094715.00,A,5128.77271,N,00236.26006,W,2.591,359.83,251124,,,A*77

$GPVTG,359.83,T,,M,2.591,N,4.798,K,A*34

$GPGGA,094715.00,5128.77271,N,00236.26006,W,1,09,1.01,61.4,M,48.6,M,,*7F

$GPGSA,A,3,05,30,13,20,07,14,15,22,11,,,,1.71,1.01,1.37*00

$GPGSV,3,1,12,05,69,255,45,07,31,057,41,08,02,048,,11,07,205,24*73

$GPGSV,3,2,12,13,58,278,46,14,29,135,44,15,24,283,42,18,19,319,39*7F

$GPGSV,3,3,12,20,51,185,35,22,15,152,40,27,03,018,,30,65,078,46*72

$GPGLL,5128.77271,N,00236.26006,W,094715.00,A,A*7A

$GPRMC,094716.00,A,5128.77349,N,00236.26004,W,2.698,1.33,251124,,,A*73

$GPVTG,1.33,T,,M,2.698,N,4.996,K,A*3B

$GPGGA,094716.00,5128.77349,N,00236.26004,W,1,09,1.01,61.2,M,48.6,M,,*72

$GPGSA,A,3,05,30,13,20,07,14,15,22,11,,,,1.71,1.01,1.37*00

$GPGSV,3,1,12,05,69,255,47,07,31,057,45,08,02,048,,11,07,205,30*70

$GPGSV,3,2,12,13,58,278,49,14,29,135,41,15,24,283,35,18,19,319,34*78

$GPGSV,3,3,12,20,51,185,32,22,15,152,38,27,03,018,,30,65,078,44*78

$GPGLL,5128.77349,N,00236.26004,W,094716.00,A,A*71

$GPRMC,094717.00,A,5128.77418,N,00236.26005,W,2.416,0.80,251124,,,A*7D

$GPVTG,0.80,T,,M,2.416,N,4.474,K,A*37

$GPGGA,094717.00,5128.77418,N,00236.26005,W,1,08,1.08,60.8,M,48.6,M,,*72

$GPGSA,A,3,05,30,13,20,07,14,15,22,,,,,1.91,1.08,1.57*01

$GPGSV,3,1,12,05,69,255,45,07,31,057,42,08,02,048,,11,07,205,*76

$GPGSV,3,2,12,13,58,278,47,14,29,135,43,15,24,283,39,18,19,319,36*7A

$GPGSV,3,3,12,20,51,185,33,22,15,152,36,27,03,018,,30,65,078,43*70

$GPGLL,5128.77418,N,00236.26005,W,094717.00,A,A*72

$GPRMC,094718.00,A,5128.77489,N,00236.25998,W,2.556,1.35,251124,,,A*7E

$GPVTG,1.35,T,,M,2.556,N,4.734,K,A*3A

$GPGGA,094718.00,5128.77489,N,00236.25998,W,1,08,1.08,61.1,M,48.6,M,,*73

$GPGSA,A,3,05,30,13,20,07,14,15,22,,,,,1.91,1.08,1.57*01

$GPGSV,3,1,12,05,69,255,46,07,31,057,43,08,02,048,,11,07,205,24*72

$GPGSV,3,2,12,13,58,278,45,14,29,135,40,15,24,283,39,18,19,319,36*7B

$GPGSV,3,3,12,20,51,185,39,22,15,152,42,27,03,018,,30,65,078,43*79

$GPGLL,5128.77489,N,00236.25998,W,094718.00,A,A*7B

$GPTXT,01,01,01,NMEA unknown msg*58

$GPRMC,094719.00,A,5128.77569,N,00236.26003,W,2.665,0.38,251124,,,A*77

$GPVTG,0.38,T,,M,2.665,N,4.935,K,A*3A

$GPGGA,094719.00,5128.77569,N,00236.26003,W,1,08,1.08,61.0,M,48.6,M,,*74

$GPGSA,A,3,05,30,13,20,07,14,15,22,,,,,1.91,1.08,1.57*01

$GPGSV,3,1,12,05,69,255,44,07,31,057,45,08,02,048,,11,07,205,*70

$GPGSV,3,2,12,13,58,278,47,14,29,135,38,15,24,283,27,18,19,319,43*7B

$GPGSV,3,3,12,20,51,185,35,22,15,152,40,27,03,018,,30,65,078,44*70

$GPGLL,5128.77569,N,00236.26003,W,094719.00,A,A*7D

$GPTXT,01,01,01,NMEA unknown msg*58

$GPRMC,094720.00,A,5128.77641,N,00236.26006,W,2.569,358.67,251124,,,A*7A

$GPVTG,358.67,T,,M,2.569,N,4.758,K,A*34

$GPGGA,094720.00,5128.77641,N,00236.26006,W,1,08,1.08,60.9,M,48.6,M,,*7A

$GPGSA,A,3,05,30,13,20,07,14,15,22,,,,,1.91,1.08,1.57*01

$GPGSV,3,1,12,05,69,255,45,07,31,057,40,08,02,048,,11,07,205,26*70

$GPGSV,3,2,12,13,58,278,46,14,29,135,39,15,24,283,43,18,19,319,44*7E

$GPGSV,3,3,12,20,51,185,35,22,15,152,37,27,03,018,,30,65,078,46*72

$GPGLL,5128.77641,N,00236.26006,W,094720.00,A,A*7B

$GPTXT,01,01,01,NMEA unknown msg*58

$GPRMC,094721.00,A,5128.77707,N,00236.26004,W,2.360,357.39,251124,,,A*71

$GPVTG,357.39,T,,M,2.360,N,4.371,K,A*30

$GPGGA,094721.00,5128.77707,N,00236.26004,W,1,09,1.01,61.0,M,48.6,M,,*7A

$GPGSA,A,3,05,30,13,20,07,14,15,22,11,,,,1.71,1.01,1.37*00

$GPGSV,3,1,12,05,69,255,45,07,31,057,43,08,02,048,,11,07,205,25*70

$GPGSV,3,2,12,13,58,278,48,14,29,135,37,15,24,283,44,18,19,319,46*7B

$GPGSV,3,3,12,20,51,185,37,22,15,152,39,27,03,018,,30,65,078,44*7C

$GPGLL,5128.77707,N,00236.26004,W,094721.00,A,A*7B

$GPRMC,094722.00,A,5128.77772,N,00236.26003,W,2.507,359.14,251124,,,A*71

$GPVTG,359.14,T,,M,2.507,N,4.642,K,A*33

$GPGGA,094722.00,5128.77772,N,00236.26003,W,1,09,1.01,61.2,M,48.6,M,,*7E

$GPGSA,A,3,05,30,13,20,07,14,15,22,11,,,,1.71,1.01,1.37*00

$GPGSV,3,1,12,05,69,255,44,07,31,057,42,08,02,048,,11,07,205,25*70

$GPGSV,3,2,12,13,58,278,47,14,29,135,34,15,24,283,46,18,19,319,45*76

$GPGSV,3,3,12,20,51,185,37,22,15,152,38,27,03,018,,30,65,078,44*7D

$GPGLL,5128.77772,N,00236.26003,W,094722.00,A,A*7D

$GPRMC,094723.00,A,5128.77847,N,00236.26000,W,2.516,1.68,251124,,,A*7F

$GPVTG,1.68,T,,M,2.516,N,4.659,K,A*3C

$GPGGA,094723.00,5128.77847,N,00236.26000,W,1,09,1.01,61.1,M,48.6,M,,*76

$GPGSA,A,3,05,30,13,20,07,14,15,22,11,,,,1.71,1.01,1.37*00

$GPGSV,3,1,12,05,69,255,44,07,31,057,45,08,02,048,,11,07,205,26*74

$GPGSV,3,2,12,13,58,278,46,14,29,135,39,15,24,283,43,18,19,319,40*7A

$GPGSV,3,3,12,20,51,185,37,22,15,152,41,27,03,018,,30,65,078,44*73

$GPGLL,5128.77847,N,00236.26000,W,094723.00,A,A*76

$GPRMC,094724.00,A,5128.77921,N,00236.26005,W,2.567,1.17,251124,,,A*72

$GPVTG,1.17,T,,M,2.567,N,4.753,K,A*39

$GPGGA,094724.00,5128.77921,N,00236.26005,W,1,09,1.01,60.7,M,48.6,M,,*72

$GPGSA,A,3,05,30,13,20,07,14,15,22,11,,,,1.71,1.01,1.37*00

$GPGSV,3,1,12,05,69,255,45,07,31,057,44,08,02,048,,11,07,205,26*74

$GPGSV,3,2,12,13,58,278,48,14,29,135,38,15,24,283,41,18,19,319,33*73

$GPGSV,3,3,12,20,51,185,30,22,15,152,35,27,03,018,,30,65,078,45*76

$GPGLL,5128.77921,N,00236.26005,W,094724.00,A,A*75

$GPRMC,094725.00,A,5128.77996,N,00236.25999,W,2.625,3.16,251124,,,A*76

$GPVTG,3.16,T,,M,2.625,N,4.862,K,A*32

$GPGGA,094725.00,5128.77996,N,00236.25999,W,1,09,1.01,60.7,M,48.6,M,,*70

$GPGSA,A,3,05,30,13,20,07,14,15,22,11,,,,1.71,1.01,1.37*00

$GPGSV,3,1,12,05,69,255,45,07,31,057,43,08,02,048,,11,07,205,26*73

$GPGSV,3,2,12,13,58,278,47,14,29,135,41,15,24,283,45,18,19,319,29*7D

$GPGSV,3,3,12,20,51,185,35,22,15,152,39,27,03,018,,30,65,078,47*7D

$GPGLL,5128.77996,N,00236.25999,W,094725.00,A,A*77

$GPRMC,094726.00,A,5128.78072,N,00236.25996,W,2.700,2.58,251124,,,A*7B

$GPVTG,2.58,T,,M,2.700,N,5.000,K,A*32

$GPGGA,094726.00,5128.78072,N,00236.25996,W,1,09,1.01,60.5,M,48.6,M,,*72

$GPGSA,A,3,05,30,13,20,07,14,15,22,11,,,,1.71,1.01,1.37*00

$GPGSV,3,1,12,05,69,255,46,07,31,057,45,08,02,048,,11,07,205,24*74

$GPGSV,3,2,12,13,58,278,46,14,29,135,41,15,24,283,43,18,19,319,23*70

$GPGSV,3,3,12,20,51,185,34,22,15,152,39,27,03,018,18,30,65,078,46*74

$GPGLL,5128.78072,N,00236.25996,W,094726.00,A,A*77

$GPRMC,094727.00,A,5128.78152,N,00236.25996,W,2.875,0.58,251124,,,A*76

$GPVTG,0.58,T,,M,2.875,N,5.324,K,A*38

$GPGGA,094727.00,5128.78152,N,00236.25996,W,1,08,1.08,60.4,M,48.6,M,,*79

$GPGSA,A,3,05,30,13,20,07,14,15,22,,,,,1.91,1.08,1.57*01

$GPGSV,3,1,12,05,69,255,47,07,31,057,43,08,02,048,,11,07,205,*75

$GPGSV,3,2,12,13,58,278,48,14,29,135,40,15,24,283,49,18,19,319,25*73

$GPGSV,3,3,12,20,51,185,42,22,15,152,43,27,03,018,18,30,65,078,46*78

$GPGLL,5128.78152,N,00236.25996,W,094727.00,A,A*75

$GPRMC,094728.00,A,5128.78223,N,00236.25992,W,2.578,0.96,251124,,,A*7A

$GPVTG,0.96,T,,M,2.578,N,4.775,K,A*3B

$GPGGA,094728.00,5128.78223,N,00236.25992,W,1,08,1.08,60.4,M,48.6,M,,*77

$GPGSA,A,3,05,30,13,20,07,14,15,22,,,,,1.91,1.08,1.57*01

$GPTXT,01,01,01,NMEA unknown msg*58

$GPGSV,3,1,12,05,69,255,48,07,31,057,42,08,02,048,,11,07,205,23*7A

$GPGSV,3,2,12,13,58,278,48,14,29,135,38,15,24,283,39,18,19,319,30*7F

$GPGSV,3,3,12,20,51,185,45,22,15,152,44,27,03,018,17,30,65,078,47*76

$GPGLL,5128.78223,N,00236.25992,W,094728.00,A,A*7B

$GPTXT,01,01,01,NMEA unknown msg*58

$GPRMC,094729.00,A,5128.78292,N,00236.26005,W,2.605,355.59,251124,,,A*7C

$GPVTG,355.59,T,,M,2.605,N,4.824,K,A*39

$GPGGA,094729.00,5128.78292,N,00236.26005,W,1,08,1.08,60.5,M,48.6,M,,*79

$GPGSA,A,3,05,30,13,20,07,14,15,22,,,,,1.91,1.08,1.57*01

$GPGSV,3,1,12,05,69,255,46,07,31,057,40,08,02,048,,11,07,205,*77

$GPGSV,3,2,12,13,58,278,45,14,29,135,48,15,24,283,30,18,19,319,22*7F

$GPGSV,3,3,12,20,51,185,46,22,15,152,42,27,03,018,15,30,65,077,44*7D

$GPGLL,5128.78292,N,00236.26005,W,094729.00,A,A*74

$GPTXT,01,01,01,NMEA unknown msg*58

$GPRMC,094730.00,A,5128.78361,N,00236.26018,W,2.508,355.93,251124,,,A*7D

$GPVTG,355.93,T,,M,2.508,N,4.645,K,A*38

$GPGGA,094730.00,5128.78361,N,00236.26018,W,1,08,1.31,60.4,M,48.6,M,,*7B

$GPGSA,A,3,05,30,13,20,07,14,22,11,,,,,2.15,1.31,1.70*05

$GPGSV,3,1,12,05,69,255,45,07,31,057,44,08,02,048,,11,07,205,28*7A

$GPGSV,3,2,12,13,58,278,45,14,29,135,49,15,24,283,29,18,19,319,*76

$GPGSV,3,3,12,20,51,185,45,22,15,152,41,27,03,018,14,30,65,077,46*7E

$GPGLL,5128.78361,N,00236.26018,W,094730.00,A,A*7D

$GPRMC,094731.00,A,5128.78430,N,00236.26028,W,2.514,356.90,251124,,,A*71

$GPVTG,356.90,T,,M,2.514,N,4.657,K,A*36

$GPGGA,094731.00,5128.78430,N,00236.26028,W,1,08,1.31,60.4,M,48.6,M,,*7A

$GPGSA,A,3,05,30,13,20,07,14,22,11,,,,,2.15,1.31,1.70*05

$GPGSV,3,1,12,05,69,255,45,07,31,057,44,08,02,048,,11,07,205,25*77

$GPGSV,3,2,12,13,58,278,45,14,29,135,47,15,24,283,20,18,19,319,*71

$GPGSV,3,3,12,20,51,185,46,22,15,152,43,27,03,018,13,30,65,077,46*78

$GPGLL,5128.78430,N,00236.26028,W,094731.00,A,A*7C

$GPRMC,094732.00,A,5128.78505,N,00236.26031,W,2.711,359.37,251124,,,A*78

$GPVTG,359.37,T,,M,2.711,N,5.021,K,A*35

$GPGGA,094732.00,5128.78505,N,00236.26031,W,1,08,1.31,60.5,M,48.6,M,,*77

$GPGSA,A,3,05,30,13,20,07,14,22,11,,,,,2.14,1.31,1.70*04

$GPGSV,3,1,12,05,69,255,46,07,31,057,43,08,02,048,,11,07,205,26*70

$GPGSV,3,2,12,13,58,278,43,14,29,135,43,15,24,283,25,18,19,319,*76

$GPGSV,3,3,12,20,51,185,46,22,15,152,40,27,03,018,13,30,65,077,46*7B

$GPGLL,5128.78505,N,00236.26031,W,094732.00,A,A*70

$GPRMC,094733.00,A,5128.78582,N,00236.26031,W,2.852,1.66,251124,,,A*74

$GPVTG,1.66,T,,M,2.852,N,5.281,K,A*3F

$GPGGA,094733.00,5128.78582,N,00236.26031,W,1,07,1.61,60.5,M,48.6,M,,*73

$GPGSA,A,3,05,30,13,20,07,14,22,,,,,,3.11,1.61,2.66*01

$GPGSV,3,1,12,05,69,255,44,07,31,057,47,08,02,048,,11,07,205,*72

$GPGSV,3,2,12,13,58,278,40,14,29,135,44,15,24,283,,18,19,319,*75

$GPGSV,3,3,12,20,51,185,46,22,15,152,35,27,03,018,11,30,65,077,45*78

$GPGLL,5128.78582,N,00236.26031,W,094733.00,A,A*7E

$GPRMC,094734.00,A,5128.78657,N,00236.26043,W,2.708,355.62,251124,,,A*7B

$GPVTG,355.62,T,,M,2.708,N,5.015,K,A*36

$GPGGA,094734.00,5128.78657,N,00236.26043,W,1,07,1.61,60.2,M,48.6,M,,*7D

$GPGSA,A,3,05,30,13,20,07,14,22,,,,,,3.11,1.61,2.66*01

$GPGSV,3,1,12,05,69,255,44,07,31,057,48,08,02,048,,11,07,205,*7D

$GPGSV,3,2,12,13,58,278,46,14,29,135,46,15,24,283,29,18,19,319,27*7F

$GPGSV,3,3,12,20,51,185,44,22,15,152,39,27,03,018,11,30,65,077,48*7B

$GPGLL,5128.78657,N,00236.26043,W,094734.00,A,A*77

$GPRMC,094735.00,A,5128.78730,N,00236.26062,W,2.748,352.90,251124,,,A*77

$GPVTG,352.90,T,,M,2.748,N,5.089,K,A*3D

$GPGGA,094735.00,5128.78730,N,00236.26062,W,1,07,1.61,60.2,M,48.6,M,,*7F

$GPGSA,A,3,05,30,13,20,07,14,22,,,,,,3.11,1.61,2.66*01

$GPGSV,3,1,12,05,69,255,41,07,31,057,46,08,02,048,,11,07,205,*76

$GPGSV,3,2,12,13,58,278,46,14,29,135,47,15,24,283,27,18,19,319,27*70

$GPGSV,3,3,12,20,51,185,43,22,15,152,44,27,03,018,13,30,65,077,47*7B

$GPGLL,5128.78730,N,00236.26062,W,094735.00,A,A*75

$GPRMC,094736.00,A,5128.78804,N,00236.26073,W,2.717,354.38,251124,,,A*72

$GPVTG,354.38,T,,M,2.717,N,5.031,K,A*30

$GPGGA,094736.00,5128.78804,N,00236.26073,W,1,07,1.61,60.4,M,48.6,M,,*72

$GPGSA,A,3,05,30,13,20,07,14,22,,,,,,3.11,1.61,2.66*01

$GPGSV,3,1,12,05,69,255,44,07,31,057,46,08,02,048,,11,07,205,27*76

$GPGSV,3,2,12,13,58,278,43,14,29,135,47,15,24,283,,18,19,319,*75

$GPGSV,3,3,12,20,51,185,43,22,15,152,43,27,03,018,16,30,65,077,47*79

$GPGLL,5128.78804,N,00236.26073,W,094736.00,A,A*7E

$GPRMC,094737.00,A,5128.78873,N,00236.26083,W,2.329,354.69,251124,,,A*71

$GPVTG,354.69,T,,M,2.329,N,4.313,K,A*3F

$GPGGA,094737.00,5128.78873,N,00236.26083,W,1,08,1.31,60.3,M,48.6,M,,*71

$GPGSA,A,3,05,30,13,20,07,14,22,11,,,,,2.14,1.31,1.70*04

$GPGSV,3,1,12,05,69,255,45,07,31,057,43,08,02,048,,11,07,205,30*74

$GPGSV,3,2,12,13,58,278,32,14,29,135,45,15,24,283,29,18,19,319,*7A

$GPGSV,3,3,12,20,51,185,43,22,15,152,41,27,03,018,16,30,65,077,43*7F

$GPGLL,5128.78873,N,00236.26083,W,094737.00,A,A*70

$GPRMC,094738.00,A,5128.78940,N,00236.26078,W,2.610,1.88,251124,,,A*78

$GPVTG,1.88,T,,M,2.610,N,4.833,K,A*35

$GPGGA,094738.00,5128.78940,N,00236.26078,W,1,07,1.61,60.5,M,48.6,M,,*77

$GPGSA,A,3,05,30,13,20,07,14,22,,,,,,3.11,1.61,2.66*01

$GPGSV,3,1,12,05,69,255,44,07,31,057,48,08,02,048,,11,07,205,*7D

$GPGSV,3,2,12,13,58,278,39,14,29,135,46,15,24,283,,18,19,319,*79

$GPGSV,3,3,12,20,51,185,45,22,15,152,37,27,03,018,16,30,65,077,48*73

$GPGLL,5128.78940,N,00236.26078,W,094738.00,A,A*7A

$GPRMC,094739.00,A,5128.79017,N,00236.26074,W,2.856,1.47,251124,,,A*70

$GPVTG,1.47,T,,M,2.856,N,5.289,K,A*30

$GPGGA,094739.00,5128.79017,N,00236.26074,W,1,07,1.61,60.6,M,48.6,M,,*73

$GPGSA,A,3,05,30,13,20,07,14,22,,,,,,3.11,1.61,2.66*01

$GPGSV,3,1,12,05,69,255,46,07,31,057,47,08,02,048,,11,07,205,*70

$GPGSV,3,2,12,13,58,278,40,14,29,135,47,15,24,283,,18,19,319,22*76

$GPGSV,3,3,12,20,51,185,42,22,15,152,44,27,03,018,18,30,65,077,48*7E

$GPGLL,5128.79017,N,00236.26074,W,094739.00,A,A*7D

$GPTXT,01,01,01,NMEA unknown msg*58

$GPRMC,094740.00,A,5128.79097,N,00236.26078,W,2.765,1.53,251124,,,A*70

$GPVTG,1.53,T,,M,2.765,N,5.120,K,A*3A

$GPGGA,094740.00,5128.79097,N,00236.26078,W,1,07,1.61,60.4,M,48.6,M,,*7B

$GPGSA,A,3,05,30,13,20,07,14,22,,,,,,3.11,1.61,2.66*01

$GPGSV,3,1,12,05,69,255,46,07,31,057,46,08,02,048,,11,07,205,*71

$GPGSV,3,2,12,13,58,278,38,14,29,135,47,15,24,283,,18,19,319,*79

$GPGSV,3,3,12,20,51,185,42,22,15,152,40,27,03,018,19,30,65,077,47*74

$GPGLL,5128.79097,N,00236.26078,W,094740.00,A,A*77

$GPRMC,094741.00,A,5128.79170,N,00236.26070,W,2.654,3.50,251124,,,A*73

$GPVTG,3.50,T,,M,2.654,N,4.916,K,A*34

$GPGGA,094741.00,5128.79170,N,00236.26070,W,1,07,1.61,60.3,M,48.6,M,,*7D

$GPGSA,A,3,05,30,13,20,07,14,22,,,,,,3.11,1.61,2.66*01

$GPGSV,3,1,12,05,69,255,45,07,31,057,47,08,02,048,,11,07,205,*73

$GPGSV,3,2,12,13,58,278,35,14,29,135,43,15,24,283,27,18,19,319,*75

$GPGSV,3,3,12,20,51,185,43,22,15,152,41,27,03,018,18,30,65,077,46*74

$GPGLL,5128.79170,N,00236.26070,W,094741.00,A,A*76

$GPRMC,094742.00,A,5128.79241,N,00236.26063,W,2.505,3.33,251124,,,A*71

$GPVTG,3.33,T,,M,2.505,N,4.639,K,A*34

$GPGGA,094742.00,5128.79241,N,00236.26063,W,1,08,1.61,60.3,M,48.6,M,,*72

$GPGSA,A,3,05,30,13,20,07,14,15,22,,,,,3.11,1.61,2.66*05

$GPGSV,3,1,12,05,69,255,45,07,31,057,47,08,02,048,,11,07,205,*73

$GPGSV,3,2,12,13,58,278,39,14,29,135,44,15,24,283,27,18,19,319,*7E

$GPGSV,3,3,12,20,51,185,43,22,15,152,40,27,03,018,17,30,65,077,47*7B

$GPGLL,5128.79241,N,00236.26063,W,094742.00,A,A*76

$GPRMC,094743.00,A,5128.79314,N,00236.26062,W,2.729,1.66,251124,,,A*7E

$GPVTG,1.66,T,,M,2.729,N,5.054,K,A*36

$GPGGA,094743.00,5128.79314,N,00236.26062,W,1,07,1.61,60.3,M,48.6,M,,*7C

$GPGSA,A,3,05,30,13,20,07,14,22,,,,,,3.11,1.61,2.66*01

$GPGSV,3,1,12,05,69,255,43,07,31,057,46,08,02,048,,11,07,205,29*7F

$GPGSV,3,2,12,13,58,278,40,14,29,135,42,15,24,283,,18,19,319,*73

$GPGSV,3,3,12,20,51,185,40,22,15,152,42,27,03,018,16,30,65,077,46*7A

$GPGLL,5128.79314,N,00236.26062,W,094743.00,A,A*77

$GPRMC,094744.00,A,5128.79385,N,00236.26062,W,2.421,0.09,251124,,,A*72

$GPVTG,0.09,T,,M,2.421,N,4.484,K,A*3D

$GPGGA,094744.00,5128.79385,N,00236.26062,W,1,09,1.31,60.3,M,48.6,M,,*78

$GPGSA,A,3,05,30,13,20,07,14,15,22,11,,,,2.14,1.31,1.69*08

$GPGSV,3,1,12,05,69,255,43,07,31,057,43,08,02,048,,11,07,205,29*7A

$GPGSV,3,2,12,13,58,278,39,14,29,135,42,15,24,283,34,18,19,319,*7A

$GPGSV,3,3,12,20,51,185,42,22,15,152,38,27,03,018,16,30,65,077,45*76

$GPGLL,5128.79385,N,00236.26062,W,094744.00,A,A*78

$GPRMC,094745.00,A,5128.79452,N,00236.26064,W,2.458,359.29,251124,,,A*7B

$GPVTG,359.29,T,,M,2.458,N,4.551,K,A*37

$GPGGA,094745.00,5128.79452,N,00236.26064,W,1,08,1.61,60.3,M,48.6,M,,*76

$GPGSA,A,3,05,30,13,20,07,14,15,22,,,,,3.11,1.61,2.66*05

$GPGSV,3,1,12,05,69,255,41,07,31,057,44,08,02,048,,11,07,205,*74

$GPGSV,3,2,12,13,58,278,38,14,29,135,43,15,24,283,29,18,19,319,*76

$GPGSV,3,3,12,20,51,185,42,22,15,152,26,27,03,018,16,30,65,077,41*7D

$GPGLL,5128.79452,N,00236.26064,W,094745.00,A,A*72

$GPTXT,01,01,01,NMEA unknown msg*58

$GPRMC,094746.00,A,5128.79526,N,00236.26067,W,2.708,0.26,251124,,,A*7F

$GPVTG,0.26,T,,M,2.708,N,5.015,K,A*35

$GPGGA,094746.00,5128.79526,N,00236.26067,W,1,08,1.61,60.4,M,48.6,M,,*73

$GPGSA,A,3,05,30,13,20,07,14,15,22,,,,,3.12,1.61,2.67*07

$GPGSV,3,1,12,05,69,255,44,07,31,057,46,08,02,048,,11,07,205,27*76

$GPGSV,3,2,12,13,58,278,39,14,29,135,45,15,24,283,22,18,19,319,*7A

$GPGSV,3,3,12,20,51,185,38,22,15,152,35,27,03,018,17,30,65,077,43*71

$GPGLL,5128.79526,N,00236.26067,W,094746.00,A,A*70

$GPRMC,094747.00,A,5128.79604,N,00236.26070,W,2.765,0.20,251124,,,A*76

$GPVTG,0.20,T,,M,2.765,N,5.120,K,A*3F

$GPGGA,094747.00,5128.79604,N,00236.26070,W,1,09,1.61,60.3,M,48.6,M,,*71

$GPGSA,A,3,05,30,13,20,07,14,15,22,11,,,,3.12,1.61,2.67*07

$GPGSV,3,1,12,05,69,254,45,07,31,057,42,08,02,048,,11,07,205,28*7D

$GPGSV,3,2,12,13,58,278,39,14,29,135,42,15,24,283,29,18,19,319,21*75

$GPGSV,3,3,12,20,51,185,42,22,15,152,39,27,03,018,18,30,65,077,48*74

$GPGLL,5128.79604,N,00236.26070,W,094747.00,A,A*74

$GPRMC,094748.00,A,5128.79671,N,00236.26058,W,2.541,0.13,251124,,,A*75

$GPVTG,0.13,T,,M,2.541,N,4.705,K,A*3B

$GPGGA,094748.00,5128.79671,N,00236.26058,W,1,09,1.08,60.5,M,48.6,M,,*7F

$GPGSA,A,3,05,30,13,20,07,14,15,22,11,,,,1.91,1.08,1.58*0E

$GPGSV,3,1,12,05,69,254,42,07,31,057,45,08,02,048,,11,07,205,28*7D

$GPGSV,3,2,12,13,58,278,41,14,29,135,45,15,24,283,30,18,19,319,*76

$GPGSV,3,3,12,20,51,185,42,22,15,152,44,27,03,018,19,30,65,077,48*7F

$GPGLL,5128.79671,N,00236.26058,W,094748.00,A,A*73

$GPRMC,094749.00,A,5128.79741,N,00236.26060,W,2.498,359.00,251124,,,A*75

$GPVTG,359.00,T,,M,2.498,N,4.626,K,A*33

$GPGGA,094749.00,5128.79741,N,00236.26060,W,1,09,1.31,60.7,M,48.6,M,,*7F

$GPGSA,A,3,05,30,13,20,07,14,15,22,11,,,,2.14,1.31,1.69*08

$GPGSV,3,1,12,05,69,254,44,07,31,057,43,08,02,048,,11,07,205,28*7D

$GPGSV,3,2,12,13,58,278,39,14,29,135,38,15,24,283,29,18,19,319,*7B

$GPGSV,3,3,12,20,51,185,39,22,15,152,44,27,03,018,17,30,65,077,45*70

$GPGLL,5128.79741,N,00236.26060,W,094749.00,A,A*7B

$GPRMC,094750.00,A,5128.79810,N,00236.26057,W,2.533,359.60,251124,,,A*74

$GPVTG,359.60,T,,M,2.533,N,4.691,K,A*39

$GPGGA,094750.00,5128.79810,N,00236.26057,W,1,09,1.31,61.0,M,48.6,M,,*7E

$GPGSA,A,3,05,30,13,20,07,14,15,22,11,,,,2.14,1.31,1.69*08

$GPGSV,3,1,12,05,69,254,43,07,31,057,42,08,02,048,,11,07,205,26*75

$GPGSV,3,2,12,13,58,278,38,14,29,135,42,15,24,283,24,18,19,319,*7A

$GPGSV,3,3,12,20,51,185,38,22,15,152,38,27,03,018,16,30,65,077,45*7B

$GPGLL,5128.79810,N,00236.26057,W,094750.00,A,A*7C

$GPTXT,01,01,01,NMEA unknown msg*58

$GPRMC,094751.00,A,5128.79884,N,00236.26070,W,2.648,356.43,251124,,,A*7C

$GPVTG,356.43,T,,M,2.648,N,4.905,K,A*3A

$GPGGA,094751.00,5128.79884,N,00236.26070,W,1,09,1.61,60.8,M,48.6,M,,*7B

$GPGSA,A,3,05,30,13,20,07,14,15,22,11,,,,3.12,1.61,2.67*07

$GPGSV,3,1,12,05,69,254,45,07,31,057,43,08,02,048,,11,07,205,25*71

$GPGSV,3,2,12,13,58,278,38,14,29,135,41,15,24,283,24,18,19,319,*79

$GPGSV,3,3,12,20,51,185,40,22,15,152,35,27,03,018,14,30,65,077,45*7B

$GPGLL,5128.79884,N,00236.26070,W,094751.00,A,A*75

$GPRMC,094752.00,A,5128.79958,N,00236.26082,W,2.625,355.73,251124,,,A*79

$GPVTG,355.73,T,,M,2.625,N,4.862,K,A*31

$GPGGA,094752.00,5128.79958,N,00236.26082,W,1,08,1.61,60.8,M,48.6,M,,*74

$GPGSA,A,3,05,30,13,20,07,14,15,22,,,,,3.12,1.61,2.67*07

$GPGSV,3,1,12,05,69,254,43,07,31,057,41,08,02,048,,11,07,205,22*72

$GPGSV,3,2,12,13,58,278,35,14,29,135,44,15,24,283,23,18,19,319,19*7E

$GPGSV,3,3,12,20,51,185,42,22,15,152,37,27,03,018,15,30,65,077,48*77

$GPGLL,5128.79958,N,00236.26082,W,094752.00,A,A*7B

$GPRMC,094753.00,A,5128.80037,N,00236.26093,W,2.806,357.53,251124,,,A*71

$GPVTG,357.53,T,,M,2.806,N,5.196,K,A*3D

$GPGGA,094753.00,5128.80037,N,00236.26093,W,1,07,1.61,60.6,M,48.6,M,,*72

$GPGSA,A,3,05,30,13,20,07,14,22,,,,,,3.12,1.61,2.67*03

$GPGSV,3,1,12,05,69,254,47,07,31,057,45,08,02,048,,11,07,205,*72

$GPGSV,3,2,12,13,58,278,41,14,29,135,46,15,24,283,,18,19,319,*76

$GPGSV,3,3,12,20,51,185,42,22,15,152,38,27,03,018,13,30,65,077,47*71

$GPGLL,5128.80037,N,00236.26093,W,094753.00,A,A*7C

$GPRMC,094754.00,A,5128.80108,N,00236.26072,W,2.622,5.19,251124,,,A*76

$GPVTG,5.19,T,,M,2.622,N,4.857,K,A*3A

$GPGGA,094754.00,5128.80108,N,00236.26072,W,1,07,1.61,60.7,M,48.6,M,,*76

$GPGSA,A,3,05,30,13,20,07,14,22,,,,,,3.12,1.61,2.67*03

$GPGSV,3,1,12,05,69,254,44,07,31,057,43,08,02,048,,11,07,205,22*77

$GPGSV,3,2,12,13,58,278,40,14,29,135,47,15,24,283,,18,19,319,*76

$GPGSV,3,3,12,20,51,185,39,22,15,152,37,27,03,018,13,30,65,077,47*72

$GPGLL,5128.80108,N,00236.26072,W,094754.00,A,A*79

$GPRMC,094755.00,A,5128.80162,N,00236.26022,W,2.154,17.99,251124,,,A*43

$GPVTG,17.99,T,,M,2.154,N,3.989,K,A*02

$GPGGA,094755.00,5128.80162,N,00236.26022,W,1,07,1.61,60.6,M,48.6,M,,*7F

$GPGSA,A,3,05,30,13,20,07,14,22,,,,,,3.12,1.61,2.67*03

$GPGSV,3,1,12,05,69,254,44,07,31,057,46,08,02,048,,11,07,205,28*78

$GPGSV,3,2,12,13,58,278,42,14,29,135,42,15,24,283,,18,19,319,*71

$GPGSV,3,3,12,20,51,185,48,22,15,152,40,27,03,018,15,30,65,077,46*73

$GPGLL,5128.80162,N,00236.26022,W,094755.00,A,A*71

$GPRMC,094756.00,A,5128.80185,N,00236.25948,W,1.922,47.40,251124,,,A*44

$GPVTG,47.40,T,,M,1.922,N,3.559,K,A*08

$GPGGA,094756.00,5128.80185,N,00236.25948,W,1,07,1.61,60.5,M,48.6,M,,*70

$GPGSA,A,3,05,30,13,20,07,14,22,,,,,,3.12,1.61,2.67*03

$GPGSV,3,1,12,05,69,254,45,07,31,057,41,08,02,048,,11,07,205,26*70

$GPGSV,3,2,12,13,58,278,44,14,30,135,43,15,24,283,27,18,19,319,*7B

$GPGSV,3,3,12,20,51,185,44,22,15,152,42,27,03,018,13,30,65,077,44*79

$GPGLL,5128.80185,N,00236.25948,W,094756.00,A,A*7D

$GPRMC,094757.00,A,5128.80207,N,00236.25868,W,2.078,57.55,251124,,,A*4F

$GPVTG,57.55,T,,M,2.078,N,3.848,K,A*05

$GPGGA,094757.00,5128.80207,N,00236.25868,W,1,08,1.61,60.3,M,48.6,M,,*72

$GPGSA,A,3,05,30,13,20,07,14,22,11,,,,,3.12,1.61,2.67*03

$GPGSV,3,1,12,05,69,254,44,07,31,057,42,08,02,048,,11,07,205,23*77

$GPGSV,3,2,12,13,58,278,46,14,30,135,44,15,24,283,,18,19,319,*7B

$GPGSV,3,3,12,20,51,185,46,22,15,152,46,27,03,018,12,30,65,077,47*7D

$GPGLL,5128.80207,N,00236.25868,W,094757.00,A,A*76

$GPRMC,094758.00,A,5128.80249,N,00236.25778,W,2.750,50.81,251124,,,A*47

$GPVTG,50.81,T,,M,2.750,N,5.093,K,A*0E

$GPGGA,094758.00,5128.80249,N,00236.25778,W,1,07,1.61,60.5,M,48.6,M,,*70

$GPGSA,A,3,05,30,13,20,07,14,22,,,,,,3.12,1.61,2.67*03

$GPGSV,3,1,12,05,69,254,45,07,31,057,47,08,02,048,,11,07,205,*72

$GPGSV,3,2,12,13,58,278,45,14,30,135,45,15,24,283,,18,19,319,*79

$GPGSV,3,3,12,20,51,185,48,22,15,152,44,27,03,018,,30,65,077,49*7C

$GPGLL,5128.80249,N,00236.25778,W,094758.00,A,A*7D

$GPRMC,094759.00,A,5128.80300,N,00236.25682,W,2.938,51.43,251124,,,A*41

$GPVTG,51.43,T,,M,2.938,N,5.441,K,A*0A

$GPGGA,094759.00,5128.80300,N,00236.25682,W,1,07,1.61,60.6,M,48.6,M,,*7A

$GPGSA,A,3,05,30,13,20,07,14,22,,,,,,3.12,1.61,2.67*03

$GPGSV,3,1,12,05,69,254,45,07,31,057,42,08,02,048,,11,07,205,20*75

$GPGSV,3,2,12,13,58,278,42,14,30,135,44,15,24,283,,18,19,319,*7F

$GPGSV,3,3,12,20,51,185,49,22,15,152,40,27,03,018,,30,65,077,45*75

$GPGLL,5128.80300,N,00236.25682,W,094759.00,A,A*74

$GPRMC,094800.00,A,5128.80346,N,00236.25583,W,2.837,55.01,251124,,,A*4E

$GPVTG,55.01,T,,M,2.837,N,5.253,K,A*03

$GPGGA,094800.00,5128.80346,N,00236.25583,W,1,07,1.62,60.4,M,48.6,M,,*78

$GPGSA,A,3,05,30,13,20,07,14,22,,,,,,3.12,1.62,2.67*00

$GPGSV,3,1,12,05,69,254,44,07,31,057,42,08,02,048,,11,07,205,25*71

$GPGSV,3,2,12,13,58,278,45,14,30,135,43,15,24,283,,18,19,319,26*7B

$GPGSV,3,3,12,20,51,185,47,22,15,152,37,27,03,018,,30,65,077,43*7D

$GPGLL,5128.80346,N,00236.25583,W,094800.00,A,A*77

$GPTXT,01,01,01,NMEA unknown msg*58

$GPRMC,094801.00,A,5128.80381,N,00236.25478,W,2.772,62.32,251124,,,A*4B

$GPVTG,62.32,T,,M,2.772,N,5.134,K,A*0B

$GPGGA,094801.00,5128.80381,N,00236.25478,W,1,07,1.62,60.0,M,48.6,M,,*73

$GPGSA,A,3,05,30,13,20,07,14,22,,,,,,3.12,1.62,2.67*00

$GPGSV,3,1,12,05,69,254,46,07,31,057,47,08,02,048,,11,07,205,28*7B

$GPGSV,3,2,12,13,58,278,46,14,30,135,40,15,24,283,,18,19,319,31*7D

$GPGSV,3,3,12,20,51,185,47,22,15,152,37,27,03,018,,30,65,077,49*77

$GPGLL,5128.80381,N,00236.25478,W,094801.00,A,A*78

$GPRMC,094802.00,A,5128.80410,N,00236.25359,W,2.964,66.69,251124,,,A*40

$GPVTG,66.69,T,,M,2.964,N,5.490,K,A*03

$GPGGA,094802.00,5128.80410,N,00236.25359,W,1,08,1.62,60.0,M,48.6,M,,*74

$GPGSA,A,3,05,30,13,20,07,14,22,11,,,,,3.12,1.62,2.67*00

$GPGSV,3,1,12,05,69,254,44,07,31,057,42,08,02,048,,11,07,205,27*73

$GPGSV,3,2,12,13,58,278,45,14,30,135,40,15,24,283,24,18,19,319,37*7E

$GPGSV,3,3,12,20,51,185,47,22,15,152,28,27,03,018,,30,65,077,48*78

$GPGLL,5128.80410,N,00236.25359,W,094802.00,A,A*70

$GPRMC,094803.00,A,5128.80434,N,00236.25249,W,2.557,69.37,251124,,,A*4F

$GPVTG,69.37,T,,M,2.557,N,4.735,K,A*06

$GPGGA,094803.00,5128.80434,N,00236.25249,W,1,09,1.01,59.8,M,48.6,M,,*75

$GPGSA,A,3,05,30,13,20,07,14,15,22,11,,,,1.71,1.01,1.37*00

$GPGSV,3,1,12,05,69,254,45,07,31,057,45,08,02,048,,11,07,205,26*74

$GPGSV,3,2,12,13,58,278,44,14,30,135,39,15,24,283,30,18,19,319,38*7B

$GPGSV,3,3,12,20,51,185,49,22,15,152,18,27,03,018,,30,65,077,46*7B

$GPGLL,5128.80434,N,00236.25249,W,094803.00,A,A*77

$GPRMC,094804.00,A,5128.80453,N,00236.25133,W,2.677,71.88,251124,,,A*4B

$GPVTG,71.88,T,,M,2.677,N,4.958,K,A*0F

$GPGGA,094804.00,5128.80453,N,00236.25133,W,1,08,1.06,59.9,M,48.6,M,,*7A

$GPGSA,A,3,05,30,13,20,07,14,15,11,,,,,1.78,1.06,1.42*0C

$GPGSV,3,1,12,05,69,254,46,07,31,057,43,08,02,048,,11,07,205,35*73

$GPGSV,3,2,12,13,58,278,43,14,30,135,38,15,24,283,29,18,19,319,38*75

$GPGSV,3,3,12,20,51,185,47,22,15,152,25,27,03,018,,30,65,077,48*75

$GPGLL,5128.80453,N,00236.25133,W,094804.00,A,A*7F

$GPRMC,094805.00,A,5128.80458,N,00236.25028,W,2.301,80.25,251124,,,A*47

$GPVTG,80.25,T,,M,2.301,N,4.262,K,A*00

$GPGGA,094805.00,5128.80458,N,00236.25028,W,1,07,1.21,59.8,M,48.6,M,,*70

$GPGSA,A,3,05,30,13,20,07,14,15,,,,,,2.25,1.21,1.89*05

$GPGSV,3,1,12,05,69,254,45,07,31,057,44,08,02,048,,11,07,205,*71

$GPGSV,3,2,12,13,58,278,44,14,30,135,23,15,24,283,28,18,19,319,38*79

$GPGSV,3,3,12,20,51,185,46,22,15,152,28,27,03,018,,30,65,077,45*74

$GPGLL,5128.80458,N,00236.25028,W,094805.00,A,A*7E

$GPRMC,094806.00,A,5128.80453,N,00236.24915,W,2.642,90.18,251124,,,A*44

$GPVTG,90.18,T,,M,2.642,N,4.894,K,A*0E

$GPGGA,094806.00,5128.80453,N,00236.24915,W,1,07,1.21,59.8,M,48.6,M,,*7E

$GPGSA,A,3,05,30,13,20,07,14,15,,,,,,2.25,1.21,1.89*05

$GPGSV,3,1,12,05,69,254,46,07,31,057,45,08,02,048,,11,07,205,*73

$GPGSV,3,2,12,13,58,278,44,14,30,135,26,15,24,283,28,18,19,319,38*7C

$GPGSV,3,3,12,20,51,185,47,22,15,152,27,27,03,018,,30,65,077,45*7A

$GPGLL,5128.80453,N,00236.24915,W,094806.00,A,A*70

$GPRMC,094807.00,A,5128.80448,N,00236.24796,W,2.672,92.56,251124,,,A*41

$GPVTG,92.56,T,,M,2.672,N,4.949,K,A*04

$GPGGA,094807.00,5128.80448,N,00236.24796,W,1,08,1.08,59.9,M,48.6,M,,*75

$GPGSA,A,3,05,30,13,20,07,14,15,22,,,,,1.92,1.08,1.58*0D

$GPGSV,3,1,12,05,69,254,45,07,31,057,46,08,02,048,,11,07,205,*73

$GPGSV,3,2,12,13,58,278,43,14,30,135,26,15,24,283,29,18,19,319,42*77

$GPGSV,3,3,12,20,51,185,44,22,15,152,32,27,03,018,,30,65,077,47*7F

$GPGLL,5128.80448,N,00236.24796,W,094807.00,A,A*7E

$GPRMC,094808.00,A,5128.80450,N,00236.24677,W,2.654,91.03,251124,,,A*4E

$GPVTG,91.03,T,,M,2.654,N,4.915,K,A*0A

$GPGGA,094808.00,5128.80450,N,00236.24677,W,1,08,1.08,60.0,M,48.6,M,,*7E

$GPGSA,A,3,05,30,13,20,07,14,15,22,,,,,1.92,1.08,1.58*0D

$GPGSV,3,1,12,05,69,254,48,07,31,057,46,08,02,048,,11,07,205,*7E

$GPGSV,3,2,12,13,58,278,43,14,30,135,28,15,24,283,36,18,19,319,45*70

$GPGSV,3,3,12,20,51,185,41,22,15,152,32,27,03,018,,30,65,077,47*7A

$GPTXT,01,01,01,NMEA unknown msg*58

$GPGLL,5128.80450,N,00236.24677,W,094808.00,A,A*76

$GPRMC,094809.00,A,5128.80453,N,00236.24561,W,2.586,88.93,251124,,,A*45

$GPVTG,88.93,T,,M,2.586,N,4.789,K,A*0C

$GPGGA,094809.00,5128.80453,N,00236.24561,W,1,08,1.21,59.9,M,48.6,M,,*70

$GPGSA,A,3,05,30,13,20,07,14,15,22,,,,,2.25,1.21,1.89*05

$GPGSV,3,1,12,05,69,254,47,07,31,057,47,08,02,048,,11,07,205,*70

$GPGSV,3,2,12,13,58,278,45,14,30,135,32,15,24,283,32,18,19,319,44*78

$GPGSV,3,3,12,20,51,185,44,22,15,152,32,27,03,018,,30,65,077,48*70

$GPGLL,5128.80453,N,00236.24561,W,094809.00,A,A*70

$GPRMC,094810.00,A,5128.80455,N,00236.24453,W,2.410,88.74,251124,,,A*4C

$GPVTG,88.74,T,,M,2.410,N,4.462,K,A*0D

$GPGGA,094810.00,5128.80455,N,00236.24453,W,1,08,1.21,59.7,M,48.6,M,,*70

$GPGSA,A,3,05,30,13,20,07,14,15,22,,,,,2.25,1.21,1.90*0D

$GPGSV,3,1,12,05,69,254,46,07,31,057,45,08,02,048,,11,07,205,*73

$GPGSV,3,2,12,13,58,278,46,14,30,135,28,15,24,283,25,18,19,319,45*77

$GPGSV,3,3,12,20,51,185,41,22,15,152,28,27,03,018,,30,65,077,48*7E

$GPGLL,5128.80455,N,00236.24453,W,094810.00,A,A*7E

$GPTXT,01,01,01,NMEA unknown msg*58

$GPRMC,094811.00,A,5128.80456,N,00236.24336,W,2.630,92.08,251124,,,A*4A

$GPVTG,92.08,T,,M,2.630,N,4.871,K,A*03

$GPGGA,094811.00,5128.80456,N,00236.24336,W,1,08,1.08,60.1,M,48.6,M,,*71

$GPGSA,A,3,05,30,13,20,07,14,15,22,,,,,1.92,1.08,1.58*0D

$GPGSV,3,1,12,05,69,254,48,07,31,057,47,08,02,048,,11,07,205,*7F

$GPGSV,3,2,12,13,58,278,45,14,30,135,38,15,24,283,32,18,19,319,44*72

$GPGSV,3,3,12,20,51,185,35,22,15,152,35,27,03,018,,30,64,077,45*7D

$GPGLL,5128.80456,N,00236.24336,W,094811.00,A,A*78

$GPRMC,094812.00,A,5128.80456,N,00236.24210,W,2.863,90.98,251124,,,A*4F

$GPVTG,90.98,T,,M,2.863,N,5.303,K,A*0F

$GPGGA,094812.00,5128.80456,N,00236.24210,W,1,08,1.08,60.4,M,48.6,M,,*72

$GPGSA,A,3,05,30,13,20,07,14,15,22,,,,,1.92,1.08,1.58*0D

$GPGSV,3,1,12,05,69,254,46,07,31,057,45,08,02,048,,11,07,205,*73

$GPGSV,3,2,12,13,58,278,47,14,30,135,45,15,24,283,35,18,19,319,44*7D

$GPGSV,3,3,12,20,51,185,35,22,15,152,28,27,03,018,,30,64,077,45*71

$GPGLL,5128.80456,N,00236.24210,W,094812.00,A,A*7E

$GPRMC,094813.00,A,5128.80465,N,00236.24083,W,2.960,87.71,251124,,,A*45

$GPVTG,87.71,T,,M,2.960,N,5.482,K,A*02

$GPGGA,094813.00,5128.80465,N,00236.24083,W,1,08,1.08,60.3,M,48.6,M,,*7C

$GPGSA,A,3,05,30,13,20,07,14,15,22,,,,,1.92,1.08,1.58*0D

$GPGSV,3,1,12,05,69,254,46,07,31,057,45,08,02,048,,11,07,205,*73

$GPGSV,3,2,12,13,58,278,47,14,30,135,39,15,24,283,35,18,19,319,45*77

$GPGSV,3,3,12,20,51,185,32,22,15,152,35,27,03,018,,30,64,077,47*78

$GPGLL,5128.80465,N,00236.24083,W,094813.00,A,A*77

$GPRMC,094814.00,A,5128.80473,N,00236.23960,W,2.733,86.65,251124,,,A*4A

$GPVTG,86.65,T,,M,2.733,N,5.062,K,A*04

$GPGGA,094814.00,5128.80473,N,00236.23960,W,1,08,1.08,60.3,M,48.6,M,,*7F

$GPGSA,A,3,05,30,13,20,07,14,15,22,,,,,1.92,1.08,1.58*0D

$GPGSV,3,1,12,05,69,254,46,07,31,057,46,08,02,048,,11,07,205,*70

$GPGSV,3,2,12,13,58,278,46,14,30,135,43,15,24,283,35,18,19,319,43*7D

$GPGSV,3,3,12,20,51,185,38,22,15,152,40,27,03,018,,30,64,077,46*71

$GPGLL,5128.80473,N,00236.23960,W,094814.00,A,A*74

$GPTXT,01,01,01,NMEA unknown msg*58

$GPRMC,094815.00,A,5128.80476,N,00236.23837,W,2.658,87.65,251124,,,A*40

$GPVTG,87.65,T,,M,2.658,N,4.922,K,A*05

$GPGGA,094815.00,5128.80476,N,00236.23837,W,1,08,1.08,60.5,M,48.6,M,,*7E

$GPGSA,A,3,05,30,13,20,07,14,15,22,,,,,1.92,1.08,1.58*0D

$GPGSV,3,1,12,05,69,254,48,07,31,057,45,08,02,048,,11,07,205,*7D

$GPGSV,3,2,12,13,58,278,43,14,30,135,43,15,24,283,28,18,19,319,42*75

$GPGSV,3,3,12,20,51,185,43,22,15,152,40,27,03,018,,30,64,077,44*7F

$GPGLL,5128.80476,N,00236.23837,W,094815.00,A,A*73

$GPRMC,094816.00,A,5128.80473,N,00236.23713,W,2.741,89.80,251124,,,A*43

$GPVTG,89.80,T,,M,2.741,N,5.077,K,A*01

$GPGGA,094816.00,5128.80473,N,00236.23713,W,1,08,1.08,60.6,M,48.6,M,,*72

$GPGSA,A,3,05,30,13,20,07,14,15,22,,,,,1.92,1.08,1.58*0D

$GPGSV,3,1,12,05,69,254,46,07,31,057,47,08,02,048,,11,07,205,27*74

$GPGSV,3,2,12,13,58,278,45,14,30,135,38,15,24,283,27,18,19,319,43*71

$GPGSV,3,3,12,20,51,185,43,22,15,152,38,27,03,018,,30,64,077,47*73

$GPGLL,5128.80473,N,00236.23713,W,094816.00,A,A*7C

$GPRMC,094817.00,A,5128.80474,N,00236.23593,W,2.654,89.15,251124,,,A*46

$GPVTG,89.15,T,,M,2.654,N,4.915,K,A*04

$GPGGA,094817.00,5128.80474,N,00236.23593,W,1,09,1.08,60.5,M,48.6,M,,*7C

$GPGSA,A,3,05,30,13,20,07,14,15,22,11,,,,1.92,1.08,1.58*0D

$GPGSV,3,1,12,05,69,254,43,07,31,057,47,08,02,048,,11,07,205,27*71

$GPGSV,3,2,12,13,58,278,43,14,30,135,38,15,24,283,29,18,19,319,43*79

$GPGSV,3,3,12,20,51,185,43,22,15,152,34,27,03,018,,30,64,077,48*70

$GPGLL,5128.80474,N,00236.23593,W,094817.00,A,A*70

$GPTXT,01,01,01,NMEA unknown msg*58

$GPRMC,094818.00,A,5128.80470,N,00236.23477,W,2.646,92.27,251124,,,A*4E

$GPVTG,92.27,T,,M,2.646,N,4.900,K,A*08

$GPGGA,094818.00,5128.80470,N,00236.23477,W,1,08,1.08,60.5,M,48.6,M,,*7D

$GPGSA,A,3,05,30,13,20,07,14,15,22,,,,,1.92,1.08,1.58*0D

$GPGSV,3,1,12,05,69,254,47,07,31,057,48,08,02,048,,11,07,205,*7F

$GPGSV,3,2,12,13,58,278,47,14,30,135,32,15,24,283,33,18,19,319,45*7A

$GPGSV,3,3,12,20,51,185,45,22,15,152,29,27,03,018,,30,64,077,42*70

$GPGLL,5128.80470,N,00236.23477,W,094818.00,A,A*70

$GPRMC,094819.00,A,5128.80471,N,00236.23353,W,2.807,89.99,251124,,,A*4B

$GPVTG,89.99,T,,M,2.807,N,5.199,K,A*05

$GPGGA,094819.00,5128.80471,N,00236.23353,W,1,08,1.08,60.7,M,48.6,M,,*7E

$GPGSA,A,3,05,30,13,20,07,14,15,22,,,,,1.92,1.08,1.58*0D

$GPGSV,3,1,12,05,69,254,47,07,31,057,47,08,02,048,,11,07,205,*70

$GPGSV,3,2,12,13,58,278,46,14,30,135,42,15,24,283,32,18,19,319,39*76

$GPGSV,3,3,12,20,51,185,39,22,15,152,29,27,03,018,,30,64,077,43*7A

$GPGLL,5128.80471,N,00236.23353,W,094819.00,A,A*71

$GPRMC,094820.00,A,5128.80477,N,00236.23235,W,2.815,87.42,251124,,,A*4D

$GPVTG,87.42,T,,M,2.815,N,5.213,K,A*0F

$GPGGA,094820.00,5128.80477,N,00236.23235,W,1,08,1.08,60.4,M,48.6,M,,*70

$GPGSA,A,3,05,30,13,20,07,14,15,22,,,,,1.92,1.08,1.58*0D

$GPGSV,3,1,12,05,69,254,47,07,31,057,44,08,02,048,,11,07,205,28*79

$GPGSV,3,2,12,13,58,278,47,14,30,135,41,15,24,283,38,18,19,319,37*70

$GPGSV,3,3,12,20,51,185,45,22,15,152,33,27,03,018,,30,64,077,47*7E

$GPGLL,5128.80477,N,00236.23235,W,094820.00,A,A*7C

$GPRMC,094821.00,A,5128.80490,N,00236.23109,W,2.661,81.38,251124,,,A*4F

$GPVTG,81.38,T,,M,2.661,N,4.928,K,A*0B

$GPGGA,094821.00,5128.80490,N,00236.23109,W,1,08,1.08,60.6,M,48.6,M,,*76

$GPGSA,A,3,05,30,13,20,07,14,15,22,,,,,1.92,1.08,1.58*0D

$GPGSV,3,1,12,05,69,254,46,07,31,057,43,08,02,048,,11,07,205,26*71

$GPGSV,3,2,12,13,58,278,46,14,30,135,42,15,24,283,38,18,19,319,24*70

$GPGSV,3,3,12,20,51,185,43,22,15,152,29,27,03,018,,30,64,077,46*72

$GPGLL,5128.80490,N,00236.23109,W,094821.00,A,A*78

$GPRMC,094822.00,A,5128.80507,N,00236.22995,W,2.621,79.51,251124,,,A*43

$GPVTG,79.51,T,,M,2.621,N,4.853,K,A*0A

$GPGGA,094822.00,5128.80507,N,00236.22995,W,1,08,1.08,60.6,M,48.6,M,,*76

$GPGSA,A,3,05,30,13,20,07,14,15,22,,,,,1.92,1.08,1.58*0D

$GPGSV,3,1,12,05,69,254,46,07,31,057,45,08,02,048,,11,07,205,26*77

$GPGSV,3,2,12,13,58,278,44,14,30,135,41,15,24,283,36,18,19,319,31*7B

$GPGSV,3,3,12,20,51,185,44,22,15,152,33,27,03,018,,30,64,077,46*7E

$GPGLL,5128.80507,N,00236.22995,W,094822.00,A,A*78

$GPRMC,094823.00,A,5128.80516,N,00236.22882,W,2.648,82.50,251124,,,A*4F

$GPVTG,82.50,T,,M,2.648,N,4.905,K,A*02

$GPGGA,094823.00,5128.80516,N,00236.22882,W,1,08,1.08,60.4,M,48.6,M,,*72

$GPGSA,A,3,05,30,13,20,07,14,15,22,,,,,1.92,1.08,1.58*0D

$GPGSV,3,1,12,05,69,254,43,07,31,057,48,08,02,048,,11,07,205,*7B

$GPGSV,3,2,12,13,58,278,43,14,30,135,44,15,24,283,29,18,19,319,29*7E

$GPGSV,3,3,12,20,51,185,41,22,15,152,34,27,03,018,,30,64,077,48*72

$GPGLL,5128.80516,N,00236.22882,W,094823.00,A,A*7E

$GPTXT,01,01,01,NMEA unknown msg*58

$GPRMC,094824.00,A,5128.80527,N,00236.22770,W,2.480,81.90,251124,,,A*41

$GPVTG,81.90,T,,M,2.480,N,4.593,K,A*08

$GPGGA,094824.00,5128.80527,N,00236.22770,W,1,08,1.08,60.4,M,48.6,M,,*75

$GPGSA,A,3,05,30,13,20,07,14,15,22,,,,,1.92,1.08,1.58*0D

$GPGSV,3,1,12,05,69,254,45,07,31,057,47,08,02,048,,11,07,205,*72

$GPGSV,3,2,12,13,58,278,44,14,30,135,42,15,24,283,31,18,19,319,*7D

$GPGSV,3,3,12,20,51,185,42,22,15,152,34,27,03,018,,30,64,077,47*7E

$GPGLL,5128.80527,N,00236.22770,W,094824.00,A,A*79

$GPRMC,094825.00,A,5128.80529,N,00236.22653,W,2.647,86.62,251124,,,A*4D

$GPVTG,86.62,T,,M,2.647,N,4.902,K,A*0F

$GPGGA,094825.00,5128.80529,N,00236.22653,W,1,08,1.08,60.5,M,48.6,M,,*7B

$GPGSA,A,3,05,30,13,20,07,14,15,22,,,,,1.92,1.08,1.59*0C

$GPGSV,3,1,12,05,69,254,47,07,31,057,45,08,02,048,,11,07,205,*72

$GPGSV,3,2,12,13,58,278,46,14,30,135,43,15,24,283,34,18,19,319,*7B

$GPGSV,3,3,12,20,51,185,43,22,15,152,31,27,03,018,,30,64,077,47*7A

$GPGLL,5128.80529,N,00236.22653,W,094825.00,A,A*76

$GPTXT,01,01,01,NMEA unknown msg*58

$GPRMC,094826.00,A,5128.80526,N,00236.22529,W,2.808,89.81,251124,,,A*48

$GPVTG,89.81,T,,M,2.808,N,5.201,K,A*01

$GPGGA,094826.00,5128.80526,N,00236.22529,W,1,08,1.08,60.5,M,48.6,M,,*79

$GPGSA,A,3,05,30,13,20,07,14,15,22,,,,,1.92,1.08,1.59*0C

$GPGSV,3,1,12,05,69,254,45,07,31,057,47,08,02,048,,11,07,205,*72

$GPGSV,3,2,12,13,58,278,44,14,30,135,42,15,24,283,30,18,19,319,*7C

$GPGSV,3,3,12,20,51,185,43,22,15,152,31,27,03,018,,30,64,077,47*7A

$GPGLL,5128.80526,N,00236.22529,W,094826.00,A,A*74

$GPRMC,094827.00,A,5128.80516,N,00236.22406,W,2.658,94.74,251124,,,A*4B

$GPVTG,94.74,T,,M,2.658,N,4.922,K,A*07

$GPGGA,094827.00,5128.80516,N,00236.22406,W,1,08,1.08,60.5,M,48.6,M,,*77

$GPGSA,A,3,05,30,13,20,07,14,15,22,,,,,1.92,1.08,1.59*0C

$GPGSV,3,1,12,05,69,254,47,07,31,057,46,08,02,048,,11,07,205,*71

$GPGSV,3,2,12,13,58,278,44,14,30,135,43,15,24,283,40,18,19,319,*7A

$GPGSV,3,3,12,20,51,185,45,22,15,152,30,27,03,018,,30,64,077,47*7D

$GPGLL,5128.80516,N,00236.22406,W,094827.00,A,A*7A

$GPRMC,094828.00,A,5128.80498,N,00236.22291,W,2.654,101.26,251124,,,A*7D

$GPVTG,101.26,T,,M,2.654,N,4.916,K,A*36

$GPGGA,094828.00,5128.80498,N,00236.22291,W,1,08,1.08,60.5,M,48.6,M,,*77

$GPGSA,A,3,05,30,13,20,07,14,15,22,,,,,1.92,1.08,1.59*0C

$GPGSV,3,1,12,05,69,254,48,07,31,057,44,08,02,048,,11,07,205,*7C

$GPGSV,3,2,12,13,58,278,44,14,30,135,46,15,24,283,28,18,19,319,*71

$GPGSV,3,3,12,20,51,185,45,22,15,152,34,27,03,018,,30,64,077,48*76

$GPGLL,5128.80498,N,00236.22291,W,094828.00,A,A*7A

$GPRMC,094829.00,A,5128.80471,N,00236.22181,W,2.622,107.82,251124,,,A*70

$GPVTG,107.82,T,,M,2.622,N,4.857,K,A*3B

$GPGGA,094829.00,5128.80471,N,00236.22181,W,1,08,1.08,60.7,M,48.6,M,,*71

$GPGSA,A,3,05,30,13,20,07,14,15,22,,,,,1.92,1.08,1.59*0C

$GPGSV,3,1,12,05,69,253,47,07,31,057,43,08,02,048,,11,07,205,26*77

$GPGSV,3,2,12,13,58,278,45,14,30,135,44,15,24,283,33,18,19,319,23*79

$GPGSV,3,3,12,20,51,185,46,22,15,152,28,27,03,018,,30,64,077,48*78

$GPGLL,5128.80471,N,00236.22181,W,094829.00,A,A*7E

$GPRMC,094830.00,A,5128.80437,N,00236.22080,W,2.429,114.87,251124,,,A*74

$GPVTG,114.87,T,,M,2.429,N,4.498,K,A*3A

$GPGGA,094830.00,5128.80437,N,00236.22080,W,1,08,1.08,60.7,M,48.6,M,,*7B

$GPGSA,A,3,05,30,13,20,07,14,15,22,,,,,1.92,1.08,1.59*0C

$GPGSV,3,1,12,05,69,253,47,07,31,057,46,08,02,048,,11,07,205,27*73

$GPGSV,3,2,12,13,58,278,44,14,30,135,41,15,24,283,36,18,19,319,25*7E

$GPGSV,3,3,12,20,51,185,46,22,15,152,26,27,03,018,,30,64,077,47*79

$GPGLL,5128.80437,N,00236.22080,W,094830.00,A,A*74

$GPRMC,094831.00,A,5128.80392,N,00236.21998,W,2.440,125.30,251124,,,A*7F

$GPVTG,125.30,T,,M,2.440,N,4.518,K,A*32

$GPGGA,094831.00,5128.80392,N,00236.21998,W,1,07,1.21,60.8,M,48.6,M,,*7A

$GPGSA,A,3,05,30,13,20,07,14,15,,,,,,2.25,1.21,1.90*0D

$GPGSV,3,1,12,05,69,253,48,07,31,057,43,08,02,048,,11,07,205,*7C

$GPGSV,3,2,12,13,58,278,48,14,30,135,42,15,24,283,33,18,19,319,26*77

$GPGSV,3,3,12,20,51,185,45,22,15,152,,27,03,018,,30,64,077,47*7E

$GPGLL,5128.80392,N,00236.21998,W,094831.00,A,A*7E

$GPRMC,094832.00,A,5128.80347,N,00236.21908,W,2.747,125.43,251124,,,A*7D

$GPVTG,125.43,T,,M,2.747,N,5.088,K,A*3F

$GPGGA,094832.00,5128.80347,N,00236.21908,W,1,07,1.21,60.8,M,48.6,M,,*78

$GPGSA,A,3,05,30,13,20,07,14,15,,,,,,2.25,1.21,1.90*0D

$GPGSV,3,1,12,05,69,253,49,07,31,057,46,08,02,048,,11,07,205,*78

$GPGSV,3,2,12,13,58,278,48,14,30,135,43,15,24,283,29,18,19,319,27*7C

$GPGSV,3,3,12,20,51,185,45,22,15,152,,27,03,018,,30,64,077,48*71

$GPGLL,5128.80347,N,00236.21908,W,094832.00,A,A*7C

$GPRMC,094833.00,A,5128.80306,N,00236.21802,W,2.781,121.56,251124,,,A*78

$GPVTG,121.56,T,,M,2.781,N,5.151,K,A*30

$GPGGA,094833.00,5128.80306,N,00236.21802,W,1,07,1.21,60.8,M,48.6,M,,*77

$GPGSA,A,3,05,30,13,20,07,14,15,,,,,,2.25,1.21,1.90*0D

$GPGSV,3,1,12,05,69,253,46,07,31,057,48,08,02,048,,11,07,205,*79

$GPGSV,3,2,12,13,58,278,45,14,30,135,46,15,24,283,38,18,19,319,34*76

$GPGSV,3,3,12,20,51,185,43,22,15,152,28,27,03,018,,30,64,077,48*7D

$GPGLL,5128.80306,N,00236.21802,W,094833.00,A,A*73

$GPTXT,01,01,01,NMEA unknown msg*58

$GPRMC,094834.00,A,5128.80267,N,00236.21701,W,2.566,121.86,251124,,,A*73

$GPVTG,121.86,T,,M,2.566,N,4.753,K,A*33

$GPGGA,094834.00,5128.80267,N,00236.21701,W,1,08,1.08,60.8,M,48.6,M,,*7E

$GPGSA,A,3,05,30,13,20,07,14,15,22,,,,,1.92,1.08,1.59*0C

$GPGSV,3,1,12,05,69,253,47,07,31,057,46,08,02,048,,11,07,205,*76

$GPGSV,3,2,12,13,58,278,45,14,30,135,46,15,24,283,32,18,19,319,31*79

$GPGSV,3,3,12,20,51,185,43,22,15,152,27,27,03,018,,30,64,077,47*7D

$GPGLL,5128.80267,N,00236.21701,W,094834.00,A,A*7E

$GPRMC,094835.00,A,5128.80224,N,00236.21601,W,2.685,123.78,251124,,,A*79

$GPVTG,123.78,T,,M,2.685,N,4.972,K,A*33

$GPGGA,094835.00,5128.80224,N,00236.21601,W,1,08,1.08,61.1,M,48.6,M,,*71

$GPGSA,A,3,05,30,13,20,07,14,15,22,,,,,1.92,1.08,1.59*0C

$GPGSV,3,1,12,05,69,253,47,07,31,057,46,08,02,048,,11,07,204,*77

$GPGSV,3,2,12,13,58,278,47,14,30,135,44,15,24,283,32,18,19,319,30*78

$GPGSV,3,3,12,20,51,185,43,22,15,152,27,27,03,018,,30,64,077,48*72

$GPGLL,5128.80224,N,00236.21601,W,094835.00,A,A*79

$GPRMC,094836.00,A,5128.80184,N,00236.21499,W,2.739,121.42,251124,,,A*7D

$GPVTG,121.42,T,,M,2.739,N,5.072,K,A*36

$GPGGA,094836.00,5128.80184,N,00236.21499,W,1,07,1.21,61.1,M,48.6,M,,*7C

$GPGSA,A,3,05,30,13,20,07,14,15,,,,,,2.25,1.21,1.90*0D

$GPGSV,3,1,12,05,69,253,46,07,31,057,46,08,02,048,,11,07,204,33*76

$GPGSV,3,2,12,13,58,278,47,14,30,135,44,15,24,283,32,18,19,319,23*7A

$GPGSV,3,3,12,20,51,185,40,22,15,152,22,27,03,018,,30,64,077,46*7A

$GPGLL,5128.80184,N,00236.21499,W,094836.00,A,A*70

$GPTXT,01,01,01,NMEA unknown msg*58

$GPRMC,094837.00,A,5128.80145,N,00236.21400,W,2.671,123.36,251124,,,A*7D

$GPVTG,123.36,T,,M,2.671,N,4.946,K,A*35

$GPGGA,094837.00,5128.80145,N,00236.21400,W,1,09,1.01,61.1,M,48.6,M,,*7C

$GPGSA,A,3,05,30,13,20,07,14,15,22,11,,,,1.70,1.01,1.37*01

$GPGSV,3,1,12,05,69,253,46,07,31,057,46,08,02,048,,11,07,204,28*7C

$GPGSV,3,2,12,13,58,278,48,14,30,135,45,15,24,283,30,18,19,319,29*7C

$GPGSV,3,3,12,20,51,185,42,22,15,152,31,27,03,018,,30,64,077,47*7B

$GPGLL,5128.80145,N,00236.21400,W,094837.00,A,A*7C

$GPRMC,094838.00,A,5128.80098,N,00236.21304,W,2.629,127.26,251124,,,A*78

$GPVTG,127.26,T,,M,2.629,N,4.870,K,A*39

$GPGGA,094838.00,5128.80098,N,00236.21304,W,1,09,1.08,61.3,M,48.6,M,,*7A

$GPGSA,A,3,05,30,13,20,07,14,15,22,11,,,,1.92,1.08,1.59*0C

$GPGSV,3,1,12,05,69,253,47,07,31,057,46,08,02,048,,11,07,204,26*73

$GPGSV,3,2,12,13,58,278,49,14,30,135,40,15,24,283,35,18,19,319,28*7C

$GPGSV,3,3,12,20,51,185,45,22,15,152,31,27,03,018,,30,64,077,48*73

$GPGLL,5128.80098,N,00236.21304,W,094838.00,A,A*71

$GPRMC,094839.00,A,5128.80048,N,00236.21201,W,2.994,127.00,251124,,,A*7D

$GPVTG,127.00,T,,M,2.994,N,5.544,K,A*3F

$GPGGA,094839.00,5128.80048,N,00236.21201,W,1,08,1.08,61.4,M,48.6,M,,*74

$GPGSA,A,3,05,30,13,20,07,14,15,22,,,,,1.92,1.08,1.59*0C

$GPGSV,3,1,12,05,69,253,47,07,31,057,45,08,02,048,,11,07,204,*74

$GPGSV,3,2,12,13,58,278,49,14,30,135,43,15,24,284,36,18,19,319,26*75

$GPGSV,3,3,12,20,51,185,44,22,15,152,25,27,03,018,,30,64,077,47*78

$GPGLL,5128.80048,N,00236.21201,W,094839.00,A,A*79

$GPRMC,094840.00,A,5128.80002,N,00236.21090,W,2.897,124.43,251124,,,A*71

$GPVTG,124.43,T,,M,2.897,N,5.365,K,A*3C

$GPGGA,094840.00,5128.80002,N,00236.21090,W,1,08,1.08,61.4,M,48.6,M,,*7E

$GPGSA,A,3,05,30,13,20,07,14,15,22,,,,,1.92,1.08,1.59*0C

$GPGSV,3,1,12,05,69,253,45,07,31,057,45,08,02,048,,11,07,204,*76

$GPGSV,3,2,12,13,58,278,48,14,30,135,41,15,24,284,35,18,19,319,26*75

$GPGSV,3,3,12,20,51,185,45,22,15,152,26,27,03,018,,30,64,077,46*7B

$GPGLL,5128.80002,N,00236.21090,W,094840.00,A,A*73

$GPRMC,094841.00,A,5128.79964,N,00236.20981,W,2.788,120.42,251124,,,A*73

$GPVTG,120.42,T,,M,2.788,N,5.164,K,A*3B

$GPGGA,094841.00,5128.79964,N,00236.20981,W,1,08,1.08,61.4,M,48.6,M,,*78

$GPGSA,A,3,05,30,13,20,07,14,15,22,,,,,1.92,1.08,1.59*0C

$GPGSV,3,1,12,05,69,253,45,07,31,057,46,08,02,048,,11,07,204,*75

$GPGSV,3,2,12,13,58,278,48,14,30,135,43,15,24,284,32,18,19,319,27*71

$GPGSV,3,3,12,20,51,185,45,22,15,152,31,27,03,018,,30,64,077,48*73

$GPGLL,5128.79964,N,00236.20981,W,094841.00,A,A*75

$GPRMC,094842.00,A,5128.79922,N,00236.20877,W,2.770,122.14,251124,,,A*7C

$GPVTG,122.14,T,,M,2.770,N,5.130,K,A*3C

$GPGGA,094842.00,5128.79922,N,00236.20877,W,1,08,1.08,61.5,M,48.6,M,,*70

$GPGSA,A,3,05,30,13,20,07,14,15,22,,,,,1.92,1.08,1.59*0C

$GPGSV,3,1,12,05,69,253,46,07,31,057,43,08,02,048,,11,07,204,*73

$GPGSV,3,2,12,13,58,278,49,14,30,135,44,15,24,284,29,18,19,319,35*7E

$GPGSV,3,3,12,20,51,185,41,22,15,152,28,27,03,018,,30,64,077,46*71

$GPGLL,5128.79922,N,00236.20877,W,094842.00,A,A*7C

$GPRMC,094843.00,A,5128.79879,N,00236.20780,W,2.635,123.35,251124,,,A*77

$GPVTG,123.35,T,,M,2.635,N,4.880,K,A*3D

$GPGGA,094843.00,5128.79879,N,00236.20780,W,1,08,1.08,61.4,M,48.6,M,,*78

$GPGSA,A,3,05,30,13,20,07,14,15,22,,,,,1.92,1.08,1.59*0C

$GPGSV,3,1,12,05,69,253,48,07,31,057,39,08,02,048,,11,07,204,*70

$GPGSV,3,2,12,13,58,278,47,14,30,135,44,15,24,284,33,18,19,319,32*7C

$GPGSV,3,3,12,20,51,185,44,22,15,152,33,27,03,018,,30,64,077,48*70

$GPGLL,5128.79879,N,00236.20780,W,094843.00,A,A*75

$GPRMC,094844.00,A,5128.79837,N,00236.20681,W,2.680,123.35,251124,,,A*74

$GPVTG,123.35,T,,M,2.680,N,4.964,K,A*38

$GPGGA,094844.00,5128.79837,N,00236.20681,W,1,08,1.08,61.3,M,48.6,M,,*72

$GPGSA,A,3,05,30,13,20,07,14,15,22,,,,,1.92,1.08,1.59*0C

$GPGSV,3,1,12,05,69,253,48,07,31,057,44,08,02,048,,11,07,204,*7A

$GPGSV,3,2,12,13,58,278,48,14,30,135,45,15,24,284,33,18,19,319,35*75

$GPGSV,3,3,12,20,51,185,44,22,15,152,38,27,03,018,,30,64,077,48*7B

$GPGLL,5128.79837,N,00236.20681,W,094844.00,A,A*78

$GPRMC,094845.00,A,5128.79792,N,00236.20580,W,2.773,124.82,251124,,,A*71

$GPVTG,124.82,T,,M,2.773,N,5.135,K,A*33

$GPGGA,094845.00,5128.79792,N,00236.20580,W,1,08,1.08,61.4,M,48.6,M,,*76

$GPGSA,A,3,05,30,13,20,07,14,15,22,,,,,1.92,1.08,1.59*0C

$GPGSV,3,1,12,05,69,253,47,07,31,057,45,08,02,048,,11,07,204,*74

$GPGSV,3,2,12,13,58,278,48,14,30,135,41,15,24,284,33,18,19,319,26*73

$GPGSV,3,3,12,20,51,185,44,22,16,152,35,27,03,018,,30,64,077,47*7A

$GPGLL,5128.79792,N,00236.20580,W,094845.00,A,A*7B

$GPRMC,094846.00,A,5128.79745,N,00236.20477,W,2.881,125.50,251124,,,A*7D

$GPVTG,125.50,T,,M,2.881,N,5.336,K,A*3E

$GPGGA,094846.00,5128.79745,N,00236.20477,W,1,08,1.08,61.4,M,48.6,M,,*76

$GPGSA,A,3,05,30,13,20,07,14,15,22,,,,,1.92,1.08,1.59*0C

$GPGSV,3,1,12,05,69,253,47,07,31,057,45,08,02,048,,11,07,204,*74

$GPGSV,3,2,12,13,58,278,48,14,30,135,44,15,24,284,28,18,19,319,27*7D

$GPGSV,3,3,12,20,51,185,43,22,16,152,27,27,03,018,,30,64,077,47*7E

$GPGLL,5128.79745,N,00236.20477,W,094846.00,A,A*7B

$GPRMC,094847.00,A,5128.79701,N,00236.20375,W,2.822,124.55,251124,,,A*74

$GPVTG,124.55,T,,M,2.822,N,5.227,K,A*32

$GPGGA,094847.00,5128.79701,N,00236.20375,W,1,08,1.08,61.3,M,48.6,M,,*75

$GPGSA,A,3,05,30,13,20,07,14,15,22,,,,,1.92,1.08,1.59*0C

$GPGSV,3,1,12,05,69,253,47,07,31,057,46,08,02,048,,11,07,204,*77

$GPGSV,3,2,12,13,58,278,48,14,30,135,44,15,24,284,28,18,19,319,27*7D

$GPGSV,3,3,12,20,51,185,43,22,16,152,26,27,03,018,,30,64,077,49*71

$GPGLL,5128.79701,N,00236.20375,W,094847.00,A,A*7F

$GPTXT,01,01,01,NMEA unknown msg*58

$GPRMC,094848.00,A,5128.79661,N,00236.20273,W,2.718,122.83,251124,,,A*70

$GPVTG,122.83,T,,M,2.718,N,5.034,K,A*39

$GPGGA,094848.00,5128.79661,N,00236.20273,W,1,08,1.08,61.1,M,48.6,M,,*78

$GPGSA,A,3,05,30,13,20,07,14,15,22,,,,,1.92,1.08,1.59*0C

$GPGSV,3,1,12,05,69,253,46,07,31,057,46,08,02,048,,11,07,204,*76

$GPGSV,3,2,12,13,58,278,48,14,30,135,42,15,24,284,27,18,19,319,32*70

$GPGSV,3,3,12,20,51,185,43,22,16,152,27,27,03,018,,30,64,077,46*7F

$GPGLL,5128.79661,N,00236.20273,W,094848.00,A,A*70

$GPTXT,01,01,01,NMEA unknown msg*58

$GPRMC,094849.00,A,5128.79616,N,00236.20174,W,2.676,126.13,251124,,,A*71

$GPVTG,126.13,T,,M,2.676,N,4.956,K,A*31

$GPGGA,094849.00,5128.79616,N,00236.20174,W,1,08,1.08,61.2,M,48.6,M,,*7E

$GPGSA,A,3,05,30,13,20,07,14,15,22,,,,,1.92,1.08,1.59*0C

$GPGSV,3,1,12,05,69,253,45,07,31,057,44,08,02,048,,11,07,204,*77

$GPGSV,3,2,12,13,58,278,48,14,30,135,46,15,24,284,36,18,19,319,31*77

$GPGSV,3,3,12,20,51,185,44,22,16,152,27,27,03,018,,30,64,077,47*79

$GPGLL,5128.79616,N,00236.20174,W,094849.00,A,A*75

$GPRMC,094850.00,A,5128.79575,N,00236.20073,W,2.776,122.88,251124,,,A*7E

$GPVTG,122.88,T,,M,2.776,N,5.141,K,A*39

$GPGGA,094850.00,5128.79575,N,00236.20073,W,1,07,1.21,61.3,M,48.6,M,,*73

$GPGSA,A,3,05,30,13,20,07,14,15,,,,,,2.26,1.21,1.91*0F

$GPGSV,3,1,12,05,69,253,47,07,31,057,44,08,02,048,,11,07,204,27*70

$GPGSV,3,2,12,13,58,278,47,14,30,135,43,15,24,284,28,18,19,319,25*77

$GPGSV,3,3,12,20,51,185,42,22,16,152,,27,03,017,,30,64,077,48*7A

$GPGLL,5128.79575,N,00236.20073,W,094850.00,A,A*7D

$GPRMC,094851.00,A,5128.79544,N,00236.19963,W,2.706,116.40,251124,,,A*7B

$GPVTG,116.40,T,,M,2.706,N,5.012,K,A*3A

$GPGGA,094851.00,5128.79544,N,00236.19963,W,1,07,1.21,61.1,M,48.6,M,,*70

$GPGSA,A,3,05,30,13,20,07,14,15,,,,,,2.26,1.21,1.91*0F

$GPGSV,3,1,12,05,69,253,47,07,31,057,47,08,02,048,,11,07,204,28*7C

$GPGSV,3,2,12,13,58,278,47,14,30,135,43,15,24,284,32,18,19,319,31*79

$GPGSV,3,3,12,20,51,185,44,22,16,152,28,27,03,017,,30,64,077,46*78

$GPGLL,5128.79544,N,00236.19963,W,094851.00,A,A*7C

$GPRMC,094852.00,A,5128.79512,N,00236.19853,W,2.694,116.19,251124,,,A*7F

$GPVTG,116.19,T,,M,2.694,N,4.989,K,A*36

$GPGGA,094852.00,5128.79512,N,00236.19853,W,1,07,1.21,61.1,M,48.6,M,,*72

$GPGSA,A,3,05,30,13,20,07,14,15,,,,,,2.26,1.21,1.91*0F

$GPGSV,3,1,12,05,69,253,47,07,31,057,46,08,02,048,,11,07,204,*77

$GPGSV,3,2,12,13,58,278,45,14,30,135,42,15,24,284,32,18,19,319,38*73

$GPGSV,3,3,12,20,51,185,45,22,16,152,,27,03,017,,30,64,077,47*72

$GPGLL,5128.79512,N,00236.19853,W,094852.00,A,A*7E

$GPRMC,094853.00,A,5128.79481,N,00236.19742,W,2.801,114.57,251124,,,A*70

$GPVTG,114.57,T,,M,2.801,N,5.188,K,A*34

$GPGGA,094853.00,5128.79481,N,00236.19742,W,1,07,1.21,61.3,M,48.6,M,,*75

$GPGSA,A,3,05,30,13,20,07,14,15,,,,,,2.26,1.21,1.91*0F

$GPGSV,3,1,12,05,69,253,46,07,31,057,43,08,02,048,,11,07,204,*73

$GPGSV,3,2,12,13,58,278,44,14,30,135,41,15,24,284,32,18,19,319,38*71

$GPGSV,3,3,12,20,51,185,43,22,16,152,,27,03,017,,30,64,076,46*74

$GPGLL,5128.79481,N,00236.19742,W,094853.00,A,A*7B

$GPRMC,094854.00,A,5128.79448,N,00236.19626,W,2.893,114.92,251124,,,A*73

$GPVTG,114.92,T,,M,2.893,N,5.357,K,A*36

$GPGGA,094854.00,5128.79448,N,00236.19626,W,1,07,1.21,61.4,M,48.6,M,,*73

$GPGSA,A,3,05,30,13,20,07,14,15,,,,,,2.26,1.21,1.91*0F

$GPGSV,3,1,12,05,69,253,48,07,31,057,44,08,02,048,,11,07,204,24*7C

$GPGSV,3,2,12,13,58,278,43,14,30,135,42,15,24,284,32,18,19,319,36*7B

$GPGSV,3,3,12,20,51,185,44,22,16,152,24,27,03,017,,30,64,076,47*74

$GPGLL,5128.79448,N,00236.19626,W,094854.00,A,A*7A

$GPRMC,094855.00,A,5128.79419,N,00236.19514,W,2.739,113.49,251124,,,A*7A

$GPVTG,113.49,T,,M,2.739,N,5.073,K,A*3D

$GPGGA,094855.00,5128.79419,N,00236.19514,W,1,07,1.21,61.3,M,48.6,M,,*73

$GPGSA,A,3,05,30,13,20,07,14,15,,,,,,2.26,1.21,1.91*0F

$GPGSV,3,1,12,05,69,253,48,07,31,057,43,08,02,048,,11,07,204,*7D

$GPGSV,3,2,12,13,58,278,43,14,30,135,42,15,24,284,26,18,19,319,36*7E

$GPGSV,3,3,12,20,51,185,44,22,16,152,25,27,03,017,,30,64,076,48*7A

$GPGLL,5128.79419,N,00236.19514,W,094855.00,A,A*7D

$GPRMC,094856.00,A,5128.79386,N,00236.19402,W,2.756,115.46,251124,,,A*7E

$GPVTG,115.46,T,,M,2.756,N,5.105,K,A*3D

$GPGGA,094856.00,5128.79386,N,00236.19402,W,1,08,1.08,61.5,M,48.6,M,,*75

$GPGSA,A,3,05,30,13,20,07,14,15,22,,,,,1.93,1.08,1.59*0D

$GPGSV,3,1,12,05,69,253,48,07,31,057,44,08,02,048,,11,07,204,*7A

$GPGSV,3,2,12,13,58,278,46,14,30,135,40,15,24,284,32,18,19,319,37*7D

$GPGSV,3,3,12,20,51,185,41,22,16,152,31,27,03,017,,30,64,076,48*7A

$GPGLL,5128.79386,N,00236.19402,W,094856.00,A,A*79

$GPTXT,01,01,01,NMEA unknown msg*58

$GPRMC,094857.00,A,5128.79357,N,00236.19304,W,2.511,115.46,251124,,,A*73

$GPVTG,115.46,T,,M,2.511,N,4.651,K,A*3B

$GPGGA,094857.00,5128.79357,N,00236.19304,W,1,08,1.08,61.4,M,48.6,M,,*78

$GPGSA,A,3,05,30,13,20,07,14,15,22,,,,,1.93,1.08,1.59*0D

$GPGSV,3,1,12,05,69,253,48,07,31,057,45,08,02,048,,11,07,204,*7B

$GPGSV,3,2,12,13,58,278,45,14,30,135,40,15,24,284,27,18,19,319,32*7F

$GPGSV,3,3,12,20,51,185,37,22,16,152,37,27,03,017,,30,64,076,46*73

$GPGLL,5128.79357,N,00236.19304,W,094857.00,A,A*75

$GPRMC,094858.00,A,5128.79326,N,00236.19203,W,2.633,116.70,251124,,,A*79

$GPVTG,116.70,T,,M,2.633,N,4.877,K,A*34

$GPGGA,094858.00,5128.79326,N,00236.19203,W,1,08,1.08,61.2,M,48.6,M,,*71

$GPGSA,A,3,05,30,13,20,07,14,15,22,,,,,1.93,1.08,1.59*0D

$GPGSV,3,1,12,05,69,253,47,07,31,057,45,08,02,048,,11,07,204,*74

$GPGSV,3,2,12,13,58,278,46,14,30,135,41,15,24,284,27,18,19,319,33*7C

$GPGSV,3,3,12,20,51,185,41,22,16,152,34,27,03,017,,30,64,076,46*71

$GPGLL,5128.79326,N,00236.19203,W,094858.00,A,A*7A

$GPRMC,094859.00,A,5128.79287,N,00236.19101,W,2.643,119.92,251124,,,A*77

$GPVTG,119.92,T,,M,2.643,N,4.895,K,A*3C

$GPGGA,094859.00,5128.79287,N,00236.19101,W,1,07,1.20,61.3,M,48.6,M,,*7F

$GPGSA,A,3,05,30,13,20,07,14,15,,,,,,2.26,1.20,1.91*0E

$GPGSV,3,1,12,05,69,253,48,07,31,057,46,08,02,048,,11,07,204,*78

$GPGSV,3,2,12,13,58,278,46,14,30,135,43,15,24,284,27,18,19,319,39*74

$GPGSV,3,3,12,20,51,185,41,22,16,152,34,27,03,017,,30,64,076,46*71

$GPGLL,5128.79287,N,00236.19101,W,094859.00,A,A*70

$GPRMC,094900.00,A,5128.79250,N,00236.18989,W,2.847,118.04,251124,,,A*7D

$GPVTG,118.04,T,,M,2.847,N,5.274,K,A*3C

$GPGGA,094900.00,5128.79250,N,00236.18989,W,1,08,1.08,61.5,M,48.6,M,,*72

$GPGSA,A,3,05,30,13,20,07,14,15,22,,,,,1.93,1.08,1.59*0D

$GPGSV,3,1,12,05,69,253,47,07,31,057,46,08,02,048,,11,07,204,*77

$GPGSV,3,2,12,13,58,278,45,14,30,135,43,15,24,284,33,18,19,319,37*7C

$GPGSV,3,3,12,20,51,185,44,22,16,152,45,27,03,017,,30,64,076,47*73

$GPGLL,5128.79250,N,00236.18989,W,094900.00,A,A*7E

$GPRMC,094901.00,A,5128.79211,N,00236.18877,W,2.870,118.54,251124,,,A*78

$GPVTG,118.54,T,,M,2.870,N,5.316,K,A*38

$GPGGA,094901.00,5128.79211,N,00236.18877,W,1,08,1.08,61.5,M,48.6,M,,*76

$GPGSA,A,3,05,30,13,20,07,14,15,22,,,,,1.93,1.08,1.59*0D

$GPGSV,3,1,12,05,69,253,49,07,31,057,46,08,02,048,,11,07,204,27*7C

$GPGSV,3,2,12,13,58,278,45,14,30,135,45,15,24,284,32,18,19,319,36*7A

$GPGSV,3,3,12,20,51,185,42,22,16,152,41,27,03,017,,30,64,076,47*71

$GPGLL,5128.79211,N,00236.18877,W,094901.00,A,A*7A

$GPRMC,094902.00,A,5128.79177,N,00236.18769,W,2.644,116.47,251124,,,A*7D

$GPVTG,116.47,T,,M,2.644,N,4.898,K,A*31

$GPGGA,094902.00,5128.79177,N,00236.18769,W,1,08,1.08,61.4,M,48.6,M,,*77

$GPGSA,A,3,05,30,13,20,07,14,15,22,,,,,1.93,1.08,1.60*07

$GPGSV,3,1,12,05,69,253,48,07,31,057,46,08,02,048,,11,07,204,28*72

$GPGSV,3,2,12,13,58,278,45,14,30,135,43,15,24,284,33,18,19,319,34*7F

$GPGSV,3,3,12,20,51,185,41,22,16,152,45,27,03,017,,30,64,076,47*76

$GPGLL,5128.79177,N,00236.18769,W,094902.00,A,A*7A

$GPRMC,094903.00,A,5128.79138,N,00236.18675,W,2.540,122.28,251124,,,A*72

$GPVTG,122.28,T,,M,2.540,N,4.705,K,A*33

$GPGGA,094903.00,5128.79138,N,00236.18675,W,1,09,1.08,61.5,M,48.6,M,,*71

$GPGSA,A,3,05,30,13,20,07,14,15,22,11,,,,1.93,1.08,1.60*07

$GPGSV,3,1,12,05,69,253,48,07,31,057,44,08,02,048,,11,07,204,26*7E

$GPGSV,3,2,12,13,58,278,48,14,30,135,45,15,24,284,35,18,19,319,32*74

$GPGSV,3,3,12,20,51,185,43,22,16,152,45,27,03,017,,30,64,076,47*74

$GPGLL,5128.79138,N,00236.18675,W,094903.00,A,A*7C

$GPRMC,094904.00,A,5128.79091,N,00236.18592,W,2.635,128.09,251124,,,A*75

$GPVTG,128.09,T,,M,2.635,N,4.881,K,A*38

$GPGGA,094904.00,5128.79091,N,00236.18592,W,1,09,1.08,61.3,M,48.6,M,,*78

$GPGSA,A,3,05,30,13,20,07,14,15,22,11,,,,1.93,1.08,1.60*07

$GPGSV,3,1,12,05,69,253,48,07,31,057,43,08,02,048,,11,07,204,25*7A

$GPGSV,3,2,12,13,58,278,46,14,30,135,45,15,24,284,37,18,19,319,32*78

$GPGSV,3,3,12,20,51,185,43,22,16,152,44,27,03,017,,30,64,076,48*7A

$GPGLL,5128.79091,N,00236.18592,W,094904.00,A,A*73

$GPRMC,094905.00,A,5128.79036,N,00236.18513,W,2.572,134.56,251124,,,A*77

$GPVTG,134.56,T,,M,2.572,N,4.764,K,A*3B

$GPGGA,094905.00,5128.79036,N,00236.18513,W,1,09,1.08,61.3,M,48.6,M,,*7D

$GPGSA,A,3,05,30,13,20,07,14,15,22,11,,,,1.93,1.08,1.60*07

$GPGSV,3,1,12,05,69,253,48,07,31,057,42,08,02,048,,11,07,204,23*7D

$GPGSV,3,2,12,13,58,278,47,14,30,135,45,15,24,284,33,18,19,319,28*76

$GPGSV,3,3,12,20,51,185,44,22,16,152,39,27,03,017,,30,64,076,47*78

$GPGLL,5128.79036,N,00236.18513,W,094905.00,A,A*76

$GPRMC,094906.00,A,5128.78976,N,00236.18447,W,2.588,143.40,251124,,,A*7A

$GPVTG,143.40,T,,M,2.588,N,4.792,K,A*30

$GPGGA,094906.00,5128.78976,N,00236.18447,W,1,08,1.08,61.4,M,48.6,M,,*74

$GPGSA,A,3,05,30,13,20,07,14,15,22,,,,,1.93,1.08,1.60*07

$GPGSV,3,1,12,05,69,253,44,07,31,057,48,08,02,048,,11,07,204,*7A

$GPGSV,3,2,12,13,58,278,48,14,30,135,44,15,24,284,44,18,19,319,32*73

$GPGSV,3,3,12,20,51,185,41,22,16,152,39,27,03,017,,30,64,076,47*7D

$GPGLL,5128.78976,N,00236.18447,W,094906.00,A,A*79

$GPRMC,094907.00,A,5128.78912,N,00236.18392,W,2.605,149.65,251124,,,A*7D

$GPVTG,149.65,T,,M,2.605,N,4.824,K,A*39

$GPGGA,094907.00,5128.78912,N,00236.18392,W,1,08,1.08,61.5,M,48.6,M,,*79

$GPGSA,A,3,05,30,13,20,07,14,15,22,,,,,1.93,1.08,1.60*07

$GPGSV,3,1,12,05,69,253,47,07,31,057,49,08,02,048,,11,07,204,*78

$GPGSV,3,2,12,13,58,278,49,14,30,135,45,15,24,284,35,18,19,319,29*7F

$GPGSV,3,3,12,20,51,185,45,22,16,152,37,27,03,017,,30,64,076,48*78

$GPGLL,5128.78912,N,00236.18392,W,094907.00,A,A*75

$GPRMC,094908.00,A,5128.78841,N,00236.18351,W,2.716,156.84,251124,,,A*78

$GPVTG,156.84,T,,M,2.716,N,5.030,K,A*37

$GPGGA,094908.00,5128.78841,N,00236.18351,W,1,08,1.08,61.5,M,48.6,M,,*7E

$GPGSA,A,3,05,30,13,20,07,14,15,22,,,,,1.93,1.08,1.60*07

$GPGSV,3,1,12,05,69,253,46,07,31,057,48,08,02,048,,11,07,204,*78

$GPGSV,3,2,12,13,58,278,46,14,30,135,45,15,24,284,30,18,19,319,31*7C

$GPGSV,3,3,12,20,51,185,46,22,16,152,37,27,03,017,,30,64,076,48*7B

$GPGLL,5128.78841,N,00236.18351,W,094908.00,A,A*72

$GPRMC,094909.00,A,5128.78766,N,00236.18320,W,2.750,161.80,251124,,,A*77

